[
  {
    "name": "강릉종합사회복지관",
    "address": "강원도 강릉시 강변로 510, 관리사무소건물 2층",
    "lot_address": "강원 강릉시 입암동 49-9",
    "org": "월정사복지재단",
    "org_type": "사회복지법인",
    "lon": 128.9167940265388,
    "lat": 37.76466428690625
  },
  {
    "name": "명륜종합사회복지관",
    "address": "강원도 원주시 예술관길 25",
    "lot_address": "강원 원주시 명륜동 705",
    "org": "성불복지회",
    "org_type": "사회복지법인",
    "lon": 127.94215134232297,
    "lat": 37.33201703891237
  },
  {
    "name": "인제군사회복지관",
    "address": "강원도 인제군 비봉로44번길 100",
    "lot_address": "강원 인제군 인제읍 남북리 388",
    "org": "작은공",
    "org_type": "사회복지법인",
    "lon": 128.16538823116827,
    "lat": 38.06079957795073
  },
  {
    "name": "화성시동탄어울림종합사회복지관",
    "address": "경기도 화성시 동탄대로시범길 133",
    "lot_address": "경기 화성시 청계동 530",
    "org": "위드캔복지재단",
    "org_type": "사회복지법인",
    "lon": 127.1123123847621,
    "lat": 37.19975356695787
  },
  {
    "name": "화성시동탄치동천종합사회복지관",
    "address": "경기도 화성시 동탄순환대로 24길 101",
    "lot_address": "경기 화성시 영천동 722",
    "org": "경산복지재단",
    "org_type": "사회복지법인",
    "lon": 127.12204177425889,
    "lat": 37.206133362278734
  },
  {
    "name": "화성시서부종합사회복지관",
    "address": "경기도 화성시 송산면 사강로145",
    "lot_address": "경기 화성시 송산면 사강리 711-2",
    "org": "천주교 수원교구 사회복지회",
    "org_type": "사회복지법인",
    "lon": 126.73232292904513,
    "lat": 37.21309510768333
  },
  {
    "name": "(경남)서부종합사회복지관",
    "address": "경남 사천시 곤양면 서정리 998-1",
    "lot_address": "경남 사천시 곤양면 서정리 998-1번지",
    "org": "사천시",
    "org_type": "지자체(직영)",
    "lon": 127.95884148351001,
    "lat": 35.05566370479102
  },
  {
    "name": "거제시종합사회복지관",
    "address": "경남 거제시 양정1길 45",
    "lot_address": "경남 거제시 양정동 208-4",
    "org": "거제시희망복지재단",
    "org_type": "재단법인(직영)",
    "lon": 128.6462462649701,
    "lat": 34.8691015082217
  },
  {
    "name": "거창군종합사회복지관",
    "address": "경남 거창군 거창읍 아림로 66",
    "lot_address": "경남 거창군 거창읍 중앙리 333-2",
    "org": "거창군",
    "org_type": "지자체(직영)",
    "lon": 127.90979138148742,
    "lat": 35.68905297996702
  },
  {
    "name": "경남종합사회복지관",
    "address": "경남 창원시 마산회원구 팔용로 272",
    "lot_address": "경남 창원시 마산회원구 구암동 31",
    "org": "인애복지재단",
    "org_type": "사회복지법인",
    "lon": 128.60071606051923,
    "lat": 35.24785880056447
  },
  {
    "name": "고성군종합사회복지관",
    "address": "경남 고성군 고성읍 동외로 156번길 36",
    "lot_address": "경남 고성군 고성읍 동외리 230-2",
    "org": "고성군청",
    "org_type": "지자체(직영)",
    "lon": 128.32781376386083,
    "lat": 34.97496001843519
  },
  {
    "name": "김해시구산사회복지관",
    "address": "경남 김해시 가락로222(구산동)",
    "lot_address": "경남 김해시 구산동 321",
    "org": "김해시복지재단",
    "org_type": "재단법인",
    "lon": 128.8764519564447,
    "lat": 35.246324054514886
  },
  {
    "name": "김해시종합사회복지관",
    "address": "경남 김해시 분성로 227",
    "lot_address": "경남 김해시 외동 1261-3",
    "org": "인제대학교 산학협력단",
    "org_type": "학교법인",
    "lon": 128.87110144655287,
    "lat": 35.23219493725933
  },
  {
    "name": "정선군종합사회복지관",
    "address": "강원도 정선군 정선읍 봉양7길 16",
    "lot_address": "강원 정선군 정선읍 봉양리 144-5",
    "org": "원주가톨릭사회복지회",
    "org_type": "사회복지법인",
    "lon": 128.6645274758165,
    "lat": 37.37805430233319
  },
  {
    "name": "남해군종합사회복지관",
    "address": "경남 남해군 남해읍 망운로 32",
    "lot_address": "경남 남해군 남해읍 아산리 355",
    "org": "남해군",
    "org_type": "지자체(직영)",
    "lon": 127.89048235166555,
    "lat": 34.83832899400331
  },
  {
    "name": "내서종합사회복지관",
    "address": "경남 창원특례시 마산회원구 내서읍 상곡로 49",
    "lot_address": "경남 창원시 마산회원구 내서읍 상곡리 193",
    "org": "통도사자비원",
    "org_type": "사회복지법인",
    "lon": 128.4997402914653,
    "lat": 35.24314847463344
  },
  {
    "name": "도남사회복지관",
    "address": "경남 통영시 발개로 153 도남사회복지관",
    "lot_address": "경남 통영시 도남동 483-2",
    "org": "통영YWCA",
    "org_type": "사단법인",
    "lon": 128.42139215112982,
    "lat": 34.82673824781024
  },
  {
    "name": "동부사회복지관",
    "address": "경남 의령군 부림면 신번로 181",
    "lot_address": "경남 의령군 부림면 신반리 1032",
    "org": "의령군",
    "org_type": "지자체(직영)",
    "lon": 128.32467436715882,
    "lat": 35.4694347877247
  },
  {
    "name": "마산종합사회복지관",
    "address": "경남 창원시 마산합포구 월영북로 46",
    "lot_address": "경남 창원시 마산합포구 대내동 1-8",
    "org": "영신복지재단",
    "org_type": "사회복지법인",
    "lon": 128.55662758426695,
    "lat": 35.18394925750984
  },
  {
    "name": "밀양시종합사회복지관",
    "address": "경남 밀양시 중앙로 218(삼문동)",
    "lot_address": "경남 밀양시 삼문동 34-13",
    "org": "나눔과베품",
    "org_type": "사회복지법인",
    "lon": 128.75893377415258,
    "lat": 35.48364101406767
  },
  {
    "name": "사천시종합사회복지관",
    "address": "경남 사천시 벌리6길 102",
    "lot_address": "경남 사천시 벌리동 256-11",
    "org": "사천시",
    "org_type": "지자체(직영)",
    "lon": 128.08599676825452,
    "lat": 34.94108197849784
  },
  {
    "name": "삼천포종합사회복지관",
    "address": "경남 사천시 임내길 36",
    "lot_address": "경남 사천시 죽림동 581-25",
    "org": "홍아",
    "org_type": "사회복지법인",
    "lon": 128.0651575584526,
    "lat": 34.96924051848837
  },
  {
    "name": "상하북종합사회복지관",
    "address": "경남 양산시 상북면 삼계동길 27",
    "lot_address": "경남 양산시 상북면 석계리 35-1",
    "org": "통도사자비원",
    "org_type": "사회복지법인",
    "lon": 129.066359863655,
    "lat": 35.4185928947595
  },
  {
    "name": "양산시종합사회복지관",
    "address": "경남 양산시 물금읍 오봉10길 8",
    "lot_address": "경남 양산시 물금읍 범어리 501",
    "org": "통도사자비원",
    "org_type": "사회복지법인",
    "lon": 129.00360387755455,
    "lat": 35.33602624535704
  },
  {
    "name": "춘천종합사회복지관",
    "address": "강원도 춘천시 후석로228번길 47",
    "lot_address": "강원 춘천시 후평동 899",
    "org": "천주교춘천교구사회복지회",
    "org_type": "사회복지법인",
    "lon": 127.75603656947706,
    "lat": 37.87193771697585
  },
  {
    "name": "옥포종합사회복지관",
    "address": "경남 거제시 옥포대첩로 84",
    "lot_address": "경남 거제시 옥포동 660-4",
    "org": "거제시희망복지재단",
    "org_type": "재단법인",
    "lon": 128.6961116692365,
    "lat": 34.89399604639193
  },
  {
    "name": "웅상종합사회복지관",
    "address": "경남 양산시 덕계7길 26",
    "lot_address": "경남 양산시 덕계동 1039",
    "org": "양산시복지재단",
    "org_type": "재단법인(직영)",
    "lon": 129.14853961258552,
    "lat": 35.374605136780616
  },
  {
    "name": "의령군종합사회복지관",
    "address": "경남 의령군 의령읍 의병로8길 44",
    "lot_address": "경남 의령군 의령읍 서동리 543",
    "org": "의령군",
    "org_type": "지자체(직영)",
    "lon": 128.25502112832504,
    "lat": 35.31653138411176
  },
  {
    "name": "진주시가좌사회복지관",
    "address": "경남 진주시 가호로 26",
    "lot_address": "경남 진주시 가좌동 660",
    "org": "진주시복지재단",
    "org_type": "재단법인",
    "lon": 128.10980816594756,
    "lat": 35.16167989365637
  },
  {
    "name": "진주시종합사회복지관",
    "address": "경남 진주시 진양호로 476",
    "lot_address": "경남 진주시 남성동 3-18",
    "org": "진주시",
    "org_type": "지자체(직영)",
    "lon": 128.0777726413201,
    "lat": 35.19077498674898
  },
  {
    "name": "진주시평거종합사회복지관",
    "address": "경남 진주시 진양호로125번길 4-1",
    "lot_address": "경남 진주시 평거동 392",
    "org": "진주시사회복지협의회",
    "org_type": "사회복지법인",
    "lon": 128.05391752160529,
    "lat": 35.16899630268432
  },
  {
    "name": "진해자은종합사회복지관",
    "address": "경남 창원시 진해구 진해대로901번길 7(자은동)",
    "lot_address": "경남 창원시 진해구 자은동 909",
    "org": "드림재단",
    "org_type": "사회복지법인",
    "lon": 128.70800406701665,
    "lat": 35.149947383308856
  },
  {
    "name": "창원시진해종합사회복지관",
    "address": "경남 창원시 진해구 진해대로 1101",
    "lot_address": "경남 창원시 진해구 풍호동 1",
    "org": "천주교마산교구 사회복지회",
    "org_type": "사회복지법인",
    "lon": 128.71048951102182,
    "lat": 35.132674361467174
  },
  {
    "name": "창원종합사회복지관",
    "address": "경남 창원시 의창구 태복산로31번길 16",
    "lot_address": "경남 창원시 의창구 도계동 905-1",
    "org": "마산교구천주교회유지재단",
    "org_type": "재단법인(직영)",
    "lon": 128.64071738956534,
    "lat": 35.25529961923175
  },
  {
    "name": "통영시종합사회복지관",
    "address": "경남 통영시 안개4길 94",
    "lot_address": "경남 통영시 무전동 464-1",
    "org": "천주교마산교구사회복지회",
    "org_type": "사회복지법인",
    "lon": 128.432482494324,
    "lat": 34.8593458836614
  },
  {
    "name": "춘천효자종합사회복지관",
    "address": "강원도 춘천시 공지로 234-16",
    "lot_address": "강원 춘천시 효자동 333",
    "org": "기독교대한감리회 사회복지재단",
    "org_type": "사회복지법인",
    "lon": 127.73905541093256,
    "lat": 37.864450241866095
  },
  {
    "name": "하동군종합사회복지관",
    "address": "경남 하동군 하동읍 오룡정길 25-3",
    "lot_address": "경남 하동군 하동읍 읍내리 967-3",
    "org": "하동군",
    "org_type": "지자체(직영)",
    "lon": 127.74161394123553,
    "lat": 35.07207894003041
  },
  {
    "name": "함안군종합사회복지관",
    "address": "경남 함안군 칠원면 삼칠로 155",
    "lot_address": "경남 함안군 칠원읍 구성리 588",
    "org": "함안군",
    "org_type": "지자체(직영)",
    "lon": 128.51727473407016,
    "lat": 35.309481508602005
  },
  {
    "name": "함양군종합사회복지관",
    "address": "경남 함양군 함양읍 필봉산길 55",
    "lot_address": "경남 함양군 함양읍 교산리 1044-6",
    "org": "함양군",
    "org_type": "지자체(직영)",
    "lon": 127.72339629141999,
    "lat": 35.52399405460825
  },
  {
    "name": "합천군종합사회복지관",
    "address": "경남 합천군 합천읍 동서로 39",
    "lot_address": "경남 합천군 합천읍 합천리 524-1",
    "org": "합천군",
    "org_type": "지자체(직영)",
    "lon": 128.15683623634857,
    "lat": 35.56785318830313
  },
  {
    "name": "(경북)학산종합사회복지관",
    "address": "경북 포항시 북구 장미길31",
    "lot_address": "경북 포항시 북구 학산동 346",
    "org": "열린가람",
    "org_type": "사회복지법인",
    "lon": 129.36334010609167,
    "lat": 36.05112057573514
  },
  {
    "name": "경산시백천종합사회복지관",
    "address": "경북 경산시 경청로222길 9-1",
    "lot_address": "경북 경산시 백천동 570",
    "org": "대한불교조계종사회복지재",
    "org_type": "사회복지법인",
    "lon": 128.74054825655716,
    "lat": 35.804324632738634
  },
  {
    "name": "경주시종합사회복지관",
    "address": "경북 경주시 승삼1길 32",
    "lot_address": "경북 경주시 용강동 1283",
    "org": "자선단",
    "org_type": "사회복지법인",
    "lon": 129.23116452678687,
    "lat": 35.879084974176365
  },
  {
    "name": "구미종합사회복지관",
    "address": "경북 구미시 검성로 103-2",
    "lot_address": "경북 구미시 황상동 110",
    "org": "대구가톨릭사회복지회",
    "org_type": "사회복지법인",
    "lon": 128.43043373294043,
    "lat": 36.11842412834826
  },
  {
    "name": "금오종합사회복지관",
    "address": "경북 구미시 문장로 110",
    "lot_address": "경북 구미시 도량동 666",
    "org": "대한불교조계종사회복지재단",
    "org_type": "사회복지법인",
    "lon": 128.33245195010142,
    "lat": 36.143464597168645
  },
  {
    "name": "김천부곡사회복지관",
    "address": "경북 김천시 문지왈길 70",
    "lot_address": "경북 김천시 부곡동 1328",
    "org": "대구가톨릭사회복지회",
    "org_type": "사회복지법인",
    "lon": 128.08760462729163,
    "lat": 36.12080995993176
  },
  {
    "name": "홍천군종합사회복지관",
    "address": "강원도 홍천군 홍천읍 너브내길123",
    "lot_address": "강원 홍천군 홍천읍 진리 21-1",
    "org": "대한불교천태종복지재단",
    "org_type": "재단법인",
    "lon": 127.89145520393905,
    "lat": 37.691895866651066
  },
  {
    "name": "문경시종합사회복지관",
    "address": "경북 문경시 매봉4길 25",
    "lot_address": "경북 문경시 모전동 870",
    "org": "대한불교조계종사회복지재단",
    "org_type": "사회복지법인",
    "lon": 128.1846234149437,
    "lat": 36.587633065300935
  },
  {
    "name": "상주시종합사회복지관",
    "address": "경북 상주시 냉림1길 43-18",
    "lot_address": "경북 상주시 냉림동 223",
    "org": "대한불교조계종사회복지재단",
    "org_type": "사회복지법인",
    "lon": 128.16363696156816,
    "lat": 36.42221724272919
  },
  {
    "name": "성주군종합사회복지관",
    "address": "경북 성주군 성주읍 성주순환로 271-9",
    "lot_address": "경북 성주군 성주읍 성산리 65-7",
    "org": "대구가톨릭사회복지회",
    "org_type": "사회복지법인",
    "lon": 128.29318520754316,
    "lat": 35.91953364270151
  },
  {
    "name": "안동시종합사회복지관",
    "address": "경북 안동시 은행나무로 106-5",
    "lot_address": "경북 안동시 송현동 1133",
    "org": "천주교안동교구사회복지회",
    "org_type": "사회복지법인",
    "lon": 128.69644310626518,
    "lat": 36.567832529860034
  },
  {
    "name": "영주시종합사회복지관",
    "address": "경북 영주시 대학로 130-1",
    "lot_address": "경북 영주시 가흥동 1385",
    "org": "천주교안동교구사회복지회",
    "org_type": "사회복지법인",
    "lon": 128.61116927342698,
    "lat": 36.80945312113248
  },
  {
    "name": "영천시종합사회복지관",
    "address": "경북 영천시 충효로 147 4단지",
    "lot_address": "경북 영천시 야사동 120",
    "org": "한국기독교청년회전국연맹유지재단",
    "org_type": "재단법인",
    "lon": 128.94419663999832,
    "lat": 35.97779298084181
  },
  {
    "name": "창포종합사회복지관",
    "address": "경북 포항시 북구 새천년대로 1075번길 10",
    "lot_address": "경북 포항시 북구 창포동 645",
    "org": "기쁨의복지재단",
    "org_type": "사회복지법인",
    "lon": 129.370013172997,
    "lat": 36.06714453819255
  },
  {
    "name": "포항종합사회복지관",
    "address": "경북 포항시 남구 상공로46번길 13",
    "lot_address": "경북 포항시 남구 대도동 632-11",
    "org": "중앙엘림복지재단",
    "org_type": "사회복지법인",
    "lon": 129.35859335036275,
    "lat": 36.012759424508445
  },
  {
    "name": "흥덕종합사회복지관",
    "address": "경북 문경시 호서로 154",
    "lot_address": "경북 문경시 흥덕동 660",
    "org": "한국기독교청년회전국연맹유지재단",
    "org_type": "재단법인",
    "lon": 128.20567983133228,
    "lat": 36.60756009551987
  },
  {
    "name": "각화종합사회복지관",
    "address": "광주광역시 북구 군왕로207번길6",
    "lot_address": "광주 북구 각화동 202",
    "org": "무진사회복지법인",
    "org_type": "사회복지법인",
    "lon": 126.93481236774366,
    "lat": 35.180224122693105
  },
  {
    "name": "횡성군종합사회복지관",
    "address": "강원도 횡성군 횡성읍 횡성로 379, 횡성군종합보건복지타운 3층",
    "lot_address": "강원 횡성군 횡성읍 읍하리 598",
    "org": "원주가톨릭사회복지회",
    "org_type": "사회복지법인",
    "lon": 127.98437520813586,
    "lat": 37.487195357195304
  },
  {
    "name": "금호종합사회복지관",
    "address": "광주광역시 서구 운천로 32번길 23",
    "lot_address": "광주 서구 금호동 743-3",
    "org": "삼동회",
    "org_type": "사회복지법인",
    "lon": 126.86187784709284,
    "lat": 35.13655853016408
  },
  {
    "name": "꿈나무사회복지관",
    "address": "광주광역시 북구 중문로 지하 58",
    "lot_address": "광주 북구 우산동 86",
    "org": "우성나눔재단",
    "org_type": "사회복지법인",
    "lon": 126.92061855964928,
    "lat": 35.177708282002584
  },
  {
    "name": "농성빛여울채종합사회복지관",
    "address": "광주광역시 서구 월산로 164-3",
    "lot_address": "광주 서구 농성동 700",
    "org": "대한불교조계종사회복지재단",
    "org_type": "사회복지법인",
    "lon": 126.89571873787746,
    "lat": 35.15301577195876
  },
  {
    "name": "동신대학교종합사회복지관",
    "address": "광주광역시 남구 월산로123번길 10",
    "lot_address": "광주 남구 월산동 389",
    "org": "동원",
    "org_type": "사회복지법인(직영)",
    "lon": 126.89576139712202,
    "lat": 35.14899068311543
  },
  {
    "name": "두암종합사회복지관",
    "address": "광주광역시 북구 삼정로 7(두암동0",
    "lot_address": "광주 북구 두암동 968-1",
    "org": "삼육재단",
    "org_type": "사회복지법인",
    "lon": 126.93578506506203,
    "lat": 35.16392628807092
  },
  {
    "name": "무등종합사회복지관",
    "address": "광주광역시 북구 삼정로 10",
    "lot_address": "광주 북구 두암동 969-6",
    "org": "기독복지회",
    "org_type": "사회복지법인",
    "lon": 126.93793466832417,
    "lat": 35.162904347744586
  },
  {
    "name": "무진종합사회복지관",
    "address": "광주광역시 서구 천변좌하로 594",
    "lot_address": "광주 서구 광천동 655-9",
    "org": "월드비전",
    "org_type": "사회복지법인(직영)",
    "lon": 126.87551148871896,
    "lat": 35.1685991586969
  },
  {
    "name": "송광종합사회복지관",
    "address": "광주광역시 광산구 우산로 17",
    "lot_address": "광주 광산구 우산동 1603-1",
    "org": "대한불교조계종사회복지재단",
    "org_type": "사회복지법인",
    "lon": 126.80277275676795,
    "lat": 35.15956714552607
  },
  {
    "name": "시민종합사회복지관",
    "address": "광주광역시 북구 양일로 76-1(양산동)",
    "lot_address": "광주 북구 양산동 657-10",
    "org": "상록원",
    "org_type": "사회복지법인(직영)",
    "lon": 126.87335582079885,
    "lat": 35.19738762017268
  },
  {
    "name": "시영종합사회복지관",
    "address": "광주광역시 서구 화정로 87",
    "lot_address": "광주 서구 쌍촌동 1228",
    "org": "대한예수교장로회전남노회유지재단",
    "org_type": "재단법인",
    "lon": 126.86717148704038,
    "lat": 35.14567578332731
  },
  {
    "name": "(경기)상동종합사회복지관",
    "address": "경기도 부천시 석천로 16번길 50",
    "lot_address": "경기 부천시 원미구 상동 318-1",
    "org": "양지바른",
    "org_type": "사회복지법인",
    "lon": 126.76258186853741,
    "lat": 37.488872943152906
  },
  {
    "name": "쌍촌종합사회복지관",
    "address": "광주광역시 서구 쌍학로47",
    "lot_address": "광주 서구 쌍촌동 1229",
    "org": "인애동산",
    "org_type": "사회복지법인",
    "lon": 126.86975147294356,
    "lat": 35.147157121759676
  },
  {
    "name": "양지종합사회복지관",
    "address": "광주광역시 남구 제중로 24-10",
    "lot_address": "광주 남구 양림동 293-4",
    "org": "양림",
    "org_type": "사회복지법인",
    "lon": 126.91539851657389,
    "lat": 35.136602200610014
  },
  {
    "name": "오치종합사회복지관",
    "address": "광주광역시 북구 서하로194번길 6",
    "lot_address": "광주 북구 오치동 1003",
    "org": "가톨릭광주사회복지",
    "org_type": "사회복지법인",
    "lon": 126.90062233000482,
    "lat": 35.18531824429782
  },
  {
    "name": "우산종합사회복지관",
    "address": "광주광역시 북구 중문로 55",
    "lot_address": "광주 북구 우산동 633-1",
    "org": "대한불교조계종사회복지재단",
    "org_type": "사회복지법인",
    "lon": 126.91909004059869,
    "lat": 35.17755271624979
  },
  {
    "name": "인애종합사회복지관",
    "address": "광주광역시 남구 용대로91(봉선동)",
    "lot_address": "광주 남구 봉선동 132-13",
    "org": "인애동산",
    "org_type": "사회복지법인",
    "lon": 126.91774457802929,
    "lat": 35.12476814836454
  },
  {
    "name": "첨단종합사회복지관",
    "address": "광주광역시 광산구 첨단 중앙로 160 (쌍암동 656-2)",
    "lot_address": "광주 광산구 쌍암동 656-2",
    "org": "광산구청",
    "org_type": "지자체(직영)",
    "lon": 126.84238120720214,
    "lat": 35.21950055295922
  },
  {
    "name": "하남종합사회복지관",
    "address": "광주광역시 광산구 월곡산정로 12",
    "lot_address": "광주 광산구 우산동 1571-1",
    "org": "투게더광산나눔문화재단",
    "org_type": "사회복지법인",
    "lon": 126.80372203825914,
    "lat": 35.164909917927055
  },
  {
    "name": "행복드림종합사회복지관",
    "address": "광주광역시 광산구 용아로 379번길 25-2",
    "lot_address": "광주 광산구 산정동 1052",
    "org": "광산구청",
    "org_type": "사회복지법인(직영)",
    "lon": 126.80369274735716,
    "lat": 35.17602201768469
  },
  {
    "name": "(대구)남구종합사회복지관",
    "address": "대구광역시 남구 중앙대로38길 17",
    "lot_address": "대구 남구 대명동 19-1",
    "org": "함께하는마음재단",
    "org_type": "사회복지법인",
    "lon": 128.59196089862417,
    "lat": 35.8492522876997
  },
  {
    "name": "(대구)서구종합사회복지관",
    "address": "대구광역시 서구 달구벌대로 365길 3",
    "lot_address": "대구 서구 내당동 67-9",
    "org": "대구가톨릭사회복지회",
    "org_type": "사회복지법인",
    "lon": 128.56342771440492,
    "lat": 35.86108817300044
  },
  {
    "name": "갈매사회복지관",
    "address": "경기도 구리시 갈매순환로 143 LH1단지 101동 1층",
    "lot_address": "경기 구리시 갈매동 573",
    "org": "한양여자대학교 산학협력단",
    "org_type": "학교법인",
    "lon": 127.12078736812016,
    "lat": 37.63295970427632
  },
  {
    "name": "(대구)학산종합사회복지관",
    "address": "대구광역시 달서구 월성로77 월성주공2단지 아파트 내 학산종합사회복지관",
    "lot_address": "대구 달서구 월성동 86",
    "org": "대구가톨릭사회복지회",
    "org_type": "사회복지법인",
    "lon": 128.529270325247,
    "lat": 35.82912558644187
  },
  {
    "name": "가정종합사회복지관",
    "address": "대구광역시 북구 대동로 10길 9",
    "lot_address": "대구 북구 산격동 1304-1",
    "org": "가정복지회",
    "org_type": "사회복지법인(직영)",
    "lon": 128.61163937848622,
    "lat": 35.89558369200898
  },
  {
    "name": "남산기독교종합사회복지관",
    "address": "대구광역시 중구 관덕정길 16",
    "lot_address": "대구 중구 남산동 941-1",
    "org": "대구남산복지재단",
    "org_type": "사회복지법인",
    "lon": 128.5904766243563,
    "lat": 35.865102809986
  },
  {
    "name": "남산종합사회복지관",
    "address": "대구광역시 중구 남산로7길 80",
    "lot_address": "대구 중구 남산동 2482-1",
    "org": "대구광역시장애인재활협회",
    "org_type": "사단법인",
    "lon": 128.57988116877925,
    "lat": 35.85973354418714
  },
  {
    "name": "달서구본동종합사회복지관",
    "address": "대구광역시 달서구 송현로 113, 본동주공아파트 내",
    "lot_address": "대구 달서구 송현동 977-2",
    "org": "대구가톨릭사회복지회",
    "org_type": "사회복지법인",
    "lon": 128.54332949538986,
    "lat": 35.82801808139287
  },
  {
    "name": "달서구성서종합사회복지관",
    "address": "대구광역시 달서구 신당로 56",
    "lot_address": "대구 달서구 신당동 1844",
    "org": "전석복지재단",
    "org_type": "사회복지법인",
    "lon": 128.4982138800748,
    "lat": 35.85263093750397
  },
  {
    "name": "달서구신당종합사회복지관",
    "address": "대구광역시 달서구 신당로 55",
    "lot_address": "대구 달서구 신당동 1846",
    "org": "가정복지회",
    "org_type": "사회복지법인",
    "lon": 128.49824697848575,
    "lat": 35.854323410722984
  },
  {
    "name": "달성군종합사회복지관",
    "address": "대구광역시 달성군 논공읍 논공로 697-9",
    "lot_address": "대구 달성군 논공읍 북리 1-104",
    "org": "대구가톨릭사회복지회",
    "org_type": "사회복지법인",
    "lon": 128.45092544687014,
    "lat": 35.7304128301661
  },
  {
    "name": "대구종합사회복지관",
    "address": "대구광역시 동구 율하동로26길 67",
    "lot_address": "대구 동구 서호동 89-1",
    "org": "어린이재단",
    "org_type": "사회복지법인(직영)",
    "lon": 128.70963723141438,
    "lat": 35.87004645338343
  },
  {
    "name": "대명사회복지관",
    "address": "대구광역시 남구 양지로 8 (대명동)",
    "lot_address": "대구 남구 대명동 3003-23",
    "org": "무일복지재단",
    "org_type": "사회복지법인",
    "lon": 128.57410720804506,
    "lat": 35.85093916094699
  },
  {
    "name": "거모종합사회복지관",
    "address": "경기도 시흥시 군자로 466번길37 (거모동 1738-9)",
    "lot_address": "경기 시흥시 거모동 1738-9",
    "org": "삼우복지재단",
    "org_type": "사회복지법인(직영)",
    "lon": 126.7812760507968,
    "lat": 37.344855825630034
  },
  {
    "name": "동촌종합사회복지관",
    "address": "대구광역시 동구 입석로 5",
    "lot_address": "대구 동구 입석동 964-8",
    "org": "아시아복지재단",
    "org_type": "사회복지법인(직영)",
    "lon": 128.64510764478962,
    "lat": 35.89348655659441
  },
  {
    "name": "범물종합사회복지관",
    "address": "대구광역시 수성구 범안로 79",
    "lot_address": "대구 수성구 범물동 1283",
    "org": "진명복지재단",
    "org_type": "사회복지법인",
    "lon": 128.64618490566298,
    "lat": 35.82023383245096
  },
  {
    "name": "본리종합사회복지관",
    "address": "대구광역시 달서구 당산로 37-14",
    "lot_address": "대구 달서구 본리동 110-4",
    "org": "홀트아동복지회",
    "org_type": "사회복지법인",
    "lon": 128.5432168210244,
    "lat": 35.84097415556423
  },
  {
    "name": "산격종합사회복지관",
    "address": "대구광역시 북구 연암로 183, 2층 산격종합사회복지관",
    "lot_address": "대구 북구 산격동 724-12",
    "org": "대구생명의전화",
    "org_type": "사회복지법인",
    "lon": 128.59517124793825,
    "lat": 35.90022252536809
  },
  {
    "name": "상인종합사회복지관",
    "address": "대구광역시 달서구 상화로 371",
    "lot_address": "대구 달서구 상인동 1563",
    "org": "대구가톨릭사회복지회",
    "org_type": "사회복지법인",
    "lon": 128.55314655453708,
    "lat": 35.80939505900631
  },
  {
    "name": "서구제일종합사회복지관",
    "address": "대구광역시 서구 옥산로6길 9(원대동)",
    "lot_address": "대구 서구 원대동3가 1120-1",
    "org": "가정복지회",
    "org_type": "사회복지법인",
    "lon": 128.57867370147653,
    "lat": 35.885810600247886
  },
  {
    "name": "선린종합사회복지관",
    "address": "대구광역시 북구 관음동로9길 10-25",
    "lot_address": "대구 북구 관음동 477-1",
    "org": "선린복지재단",
    "org_type": "사회복지법인(직영)",
    "lon": 128.5455021909948,
    "lat": 35.93782253034805
  },
  {
    "name": "안심제1종합사회복지관",
    "address": "대구광역시 동구 안심로22길 3",
    "lot_address": "대구 동구 율하동 1018",
    "org": "전석복지재단",
    "org_type": "사회복지법인",
    "lon": 128.69809226098664,
    "lat": 35.866350985527866
  },
  {
    "name": "안심종합사회복지관",
    "address": "대구광역시 동구 율하동로 76",
    "lot_address": "대구 동구 신기동 594",
    "org": "대구가톨릭사회복지회",
    "org_type": "사회복지법인",
    "lon": 128.70317722713997,
    "lat": 35.86558133472876
  },
  {
    "name": "월성종합사회복지관",
    "address": "대구광역시 달서구 학산로7길 39",
    "lot_address": "대구 달서구 월성동 273",
    "org": "대구시사회복지협의회",
    "org_type": "사회복지법인",
    "lon": 128.53050019976808,
    "lat": 35.83240863166764
  },
  {
    "name": "고강종합사회복지관",
    "address": "경기도 부천시 고리울로 79 고강종합사회복지관",
    "lot_address": "경기 부천시 오정구 고강동 324-4",
    "org": "행복복지재단",
    "org_type": "사회복지법인",
    "lon": 126.82489780359532,
    "lat": 37.52710170942156
  },
  {
    "name": "제일기독종합사회복지관",
    "address": "대구광역시 동구 송라로2길 17-6",
    "lot_address": "대구 동구 신천동 171-2",
    "org": "기독교대한감리회 사회복지재단",
    "org_type": "사회복지법인",
    "lon": 128.6213232129967,
    "lat": 35.870125702664424
  },
  {
    "name": "지산종합사회복지관",
    "address": "대구광역시 수성구 용학로 325",
    "lot_address": "대구 수성구 지산동 1297",
    "org": "보림",
    "org_type": "사회복지법인",
    "lon": 128.6426097391527,
    "lat": 35.824685631462586
  },
  {
    "name": "청곡종합사회복지관",
    "address": "대구광역시 수성구 노변공원로 49-1",
    "lot_address": "대구 수성구 노변동 161-4",
    "org": "아시아복지재단",
    "org_type": "사회복지법인(직영)",
    "lon": 128.69866035802747,
    "lat": 35.83804285140057
  },
  {
    "name": "함장종합사회복지관",
    "address": "대구광역시 수성구 들안로19길 48",
    "lot_address": "대구 수성구 상동 44",
    "org": "화성복지재단",
    "org_type": "사회복지법인",
    "lon": 128.61550199590158,
    "lat": 35.83812383318856
  },
  {
    "name": "홀트대구종합사회복지관",
    "address": "대구광역시 수성구 달구벌대로 488길 13",
    "lot_address": "대구 수성구 범어동 238-50",
    "org": "홀트아동복지회",
    "org_type": "사회복지법인(직영)",
    "lon": 128.62965833504305,
    "lat": 35.85774398113524
  },
  {
    "name": "황금종합사회복지관",
    "address": "대구시 수성구 청수로45길 41",
    "lot_address": "대구 수성구 황금동 965",
    "org": "아시아복지재단",
    "org_type": "사회복지법인",
    "lon": 128.63169224635254,
    "lat": 35.84359752915243
  },
  {
    "name": "관저종합사회복지관",
    "address": "대전광역시 서구 구봉로13",
    "lot_address": "대전 서구 관저동 1140",
    "org": "성애원",
    "org_type": "사회복지법인",
    "lon": 127.3252693450738,
    "lat": 36.29835617912741
  },
  {
    "name": "대덕종합사회복지관",
    "address": "대전광역시 대덕구 덕암로 234번길 44",
    "lot_address": "대전 대덕구 덕암동 48-2",
    "org": "대전가톨릭사회복지회",
    "org_type": "사회복지법인",
    "lon": 127.42676242843001,
    "lat": 36.440204591838665
  },
  {
    "name": "대동종합사회복지관",
    "address": "대전광역시 동구 백룡로 48번길 79(대동)",
    "lot_address": "대전 동구 대동 1-187",
    "org": "평화의마을",
    "org_type": "사회복지법인",
    "lon": 127.45020962317292,
    "lat": 36.33053092944658
  },
  {
    "name": "대전기독교종합사회복지관",
    "address": "대전광역시 중구 보문산로 333번길 29",
    "lot_address": "대전 중구 문화동 27",
    "org": "감리회태화복지재단",
    "org_type": "사회복지법인",
    "lon": 127.412547087292,
    "lat": 36.31280050517242
  },
  {
    "name": "밥상공동체종합사회복지관",
    "address": "강원도 원주시 일산로 81-2",
    "lot_address": "강원 원주시 원동 59-20",
    "org": "밥상공동체복지재단",
    "org_type": "사회복지법인(직영)",
    "lon": 127.951886028776,
    "lat": 37.346455880838704
  },
  {
    "name": "고산종합사회복지관",
    "address": "경기도 의정부시 정음로15 고산종합사회복지관",
    "lot_address": "경기 의정부시 고산동 887",
    "org": "나눔고용복지재단",
    "org_type": "사단법인",
    "lon": 127.1166983313839,
    "lat": 37.74249125096272
  },
  {
    "name": "대전종합사회복지관",
    "address": "대전광역시 대덕구 우암동로 15번길 20(비래동)",
    "lot_address": "대전 대덕구 비래동 116-7",
    "org": "초록우산 어린이재단",
    "org_type": "사회복지법인",
    "lon": 127.4510681352809,
    "lat": 36.359740174352794
  },
  {
    "name": "둔산종합사회복지관",
    "address": "대전광역시 서구 둔산로 241",
    "lot_address": "대전 서구 둔산동 1812",
    "org": "대전광역시사회복지협의회",
    "org_type": "사회복지법인",
    "lon": 127.40057106811096,
    "lat": 36.35244588834105
  },
  {
    "name": "법동종합사회복지관",
    "address": "대전광역시 대덕구 계족로664번길 27",
    "lot_address": "대전 대덕구 법동 188",
    "org": "자비복지원",
    "org_type": "사회복지법인",
    "lon": 127.43119354719465,
    "lat": 36.37124045536255
  },
  {
    "name": "보문종합사회복지관",
    "address": "대전광역시 중구 부용로 41번길 55",
    "lot_address": "대전 중구 부사동 390",
    "org": "대한불교조계종사회복지재단",
    "org_type": "사회복지법인",
    "lon": 127.43356617673578,
    "lat": 36.31011638480562
  },
  {
    "name": "산내종합사회복지관",
    "address": "대전광역시 동구 산내로 1352-25",
    "lot_address": "대전 동구 낭월동 205",
    "org": "대전벧엘원",
    "org_type": "사회복지법인",
    "lon": 127.4684256648019,
    "lat": 36.28469198276661
  },
  {
    "name": "생명종합사회복지관",
    "address": "대전광역시 동구 동부로 56-7",
    "lot_address": "대전 동구 판암동 239",
    "org": "한국생명의전화",
    "org_type": "사회복지법인",
    "lon": 127.46087618810776,
    "lat": 36.321315977554136
  },
  {
    "name": "성락종합사회복지관",
    "address": "대전광역시 중구 선화로43번길 13",
    "lot_address": "대전 중구 용두동 53-31",
    "org": "기독교대한성결교회사회사업유지재단",
    "org_type": "사회복지법인(직영)",
    "lon": 127.41263570407378,
    "lat": 36.327534600537106
  },
  {
    "name": "송강사회복지관",
    "address": "대전광역시 유성구 봉산로45",
    "lot_address": "대전 유성구 송강동 10",
    "org": "한국침례신학원",
    "org_type": "학교법인",
    "lon": 127.38485875846769,
    "lat": 36.43752532987416
  },
  {
    "name": "용문종합사회복지관",
    "address": "대전광역시 서구 계룡로 626-1",
    "lot_address": "대전 서구 용문동 589-7",
    "org": "미래복지경영",
    "org_type": "사단법인",
    "lon": 127.39123421414996,
    "lat": 36.339075830514695
  },
  {
    "name": "용운종합사회복지관",
    "address": "대전광역시 동구 용운로 110",
    "lot_address": "대전 동구 용운동 459",
    "org": "푸른하늘",
    "org_type": "사회복지법인",
    "lon": 127.45462199648819,
    "lat": 36.32763535195045
  },
  {
    "name": "고양시덕양행신종합사회복지관",
    "address": "경기도 고양시 덕양구 서정마을2로 13",
    "lot_address": "경기 고양시 덕양구 행신동 1064-1",
    "org": "승가원",
    "org_type": "사회복지법인",
    "lon": 126.8469851602537,
    "lat": 37.6211258485592
  },
  {
    "name": "월평종합사회복지관",
    "address": "대전광역시 서구 월평북로11, 주공3단지 월평종합사회복지관",
    "lot_address": "대전 서구 월평동 218",
    "org": "대한예수교장노회 대전노회 유지재단",
    "org_type": "재단법인",
    "lon": 127.3690148780392,
    "lat": 36.36382678284118
  },
  {
    "name": "유성구종합사회복지관",
    "address": "대전광역시 유성구 도안대로 589번길 27",
    "lot_address": "대전 유성구 봉명동 451-5",
    "org": "대전가톨릭사회복지회",
    "org_type": "사회복지법인",
    "lon": 127.33956671489324,
    "lat": 36.352981655841965
  },
  {
    "name": "정림종합사회복지관",
    "address": "대전광역시 서구 계백로 1286번길 86",
    "lot_address": "대전 서구 정림동 637",
    "org": "대한예수교장노회대전노회유지재단",
    "org_type": "재단법인",
    "lon": 127.366867877153,
    "lat": 36.30420638047605
  },
  {
    "name": "중리종합사회복지관",
    "address": "대전광역시 대덕구 계족로663번길 34",
    "lot_address": "대전 대덕구 법동 283-1",
    "org": "삼동회",
    "org_type": "사회복지법인",
    "lon": 127.42550178738642,
    "lat": 36.37146698124039
  },
  {
    "name": "중촌사회복지관",
    "address": "대전광역시 중구 대전천서로 695",
    "lot_address": "대전 중구 중촌동 128-1",
    "org": "천성원",
    "org_type": "사회복지법인",
    "lon": 127.41031212732966,
    "lat": 36.34447041968906
  },
  {
    "name": "판암사회복지관",
    "address": "대전광역시 동구 옥천로 152-9",
    "lot_address": "대전 동구 판암동 314",
    "org": "열림재단",
    "org_type": "사회복지법인",
    "lon": 127.45825454443356,
    "lat": 36.316322320120804
  },
  {
    "name": "한밭종합사회복지관",
    "address": "대전광역시 서구 월평북로11",
    "lot_address": "대전 서구 월평동 218",
    "org": "기독교연합봉사회",
    "org_type": "사회복지법인",
    "lon": 127.3690148780392,
    "lat": 36.36382678284118
  },
  {
    "name": "(부산)남구종합사회복지관",
    "address": "부산광역시 남구 동제당로 258",
    "lot_address": "부산 남구 우암동 129-339",
    "org": "시민이운영하는복지법인 우리마을",
    "org_type": "사회복지법인",
    "lon": 129.07452022853408,
    "lat": 35.12737446946942
  },
  {
    "name": "(부산)서구종합사회복지관",
    "address": "부산광역시 서구 망양로193번길 104",
    "lot_address": "부산 서구 동대신동1가 11-33",
    "org": "로사리오카리타스",
    "org_type": "사회복지법인",
    "lon": 129.0258837636366,
    "lat": 35.11111559490655
  },
  {
    "name": "(부산)중구종합사회복지관",
    "address": "부산광역시 중구 망양로 309",
    "lot_address": "부산 중구 대청동4가 75-7",
    "org": "로사리오 카리타스",
    "org_type": "사회복지법인",
    "lon": 129.0282593202316,
    "lat": 35.1058134923331
  },
  {
    "name": "고양시문촌7종합사회복지관",
    "address": "경기도 고양시 일산서구 킨텍스로 340",
    "lot_address": "경기 고양시 일산서구 주엽동 14",
    "org": "우림복지재단",
    "org_type": "사회복지법인",
    "lon": 126.75620314688982,
    "lat": 37.67453487997238
  },
  {
    "name": "감만종합사회복지관",
    "address": "부산광역시 남구 우암로84-1",
    "lot_address": "부산 남구 감만동 78",
    "org": "로사리오카리타스",
    "org_type": "사회복지법인",
    "lon": 129.0815932896238,
    "lat": 35.11834421433417
  },
  {
    "name": "강서구종합사회복지관",
    "address": "부산광역시 강서구 대저로 63번길31(대저동)",
    "lot_address": "부산 강서구 대저1동 1549-1",
    "org": "YWCA복지사업단",
    "org_type": "사회복지법인",
    "lon": 128.95938008652348,
    "lat": 35.216655022051334
  },
  {
    "name": "개금종합사회복지관",
    "address": "부산광역시 부산진구 백양관문로77번길 140",
    "lot_address": "부산 부산진구 개금동 1-1",
    "org": "안국",
    "org_type": "사단법인",
    "lon": 129.0225933056798,
    "lat": 35.16293455870589
  },
  {
    "name": "공창종합사회복지관",
    "address": "부산광역시 북구 효열로 268",
    "lot_address": "부산 북구 금곡동 53-1",
    "org": "공덕향",
    "org_type": "사회복지법인",
    "lon": 129.01913397225334,
    "lat": 35.26801006281897
  },
  {
    "name": "금곡종합사회복지관",
    "address": "부산광역시 북구 효열로 144",
    "lot_address": "부산 북구 금곡동 810-1",
    "org": "자연수복지재단",
    "org_type": "사회복지법인(직영)",
    "lon": 129.0155553318437,
    "lat": 35.25877247057723
  },
  {
    "name": "금정구종합사회복지관",
    "address": "부산광역시 금정구 반송로 490번길 47(금사회동동)",
    "lot_address": "부산 금정구 금사동 545-22",
    "org": "천혜복지재단",
    "org_type": "사회복지법인",
    "lon": 129.11840964473143,
    "lat": 35.214122616387904
  },
  {
    "name": "기장종합사회복지관",
    "address": "부산광역시 기장군 기장읍 차성로 206",
    "lot_address": "부산 기장군 기장읍 대라리 175-3",
    "org": "기장군도시관리공단",
    "org_type": "공단(직영)",
    "lon": 129.21363115783626,
    "lat": 35.23585264648108
  },
  {
    "name": "낙동종합사회복지관",
    "address": "부산광역시 강서구 순아강변길 5",
    "lot_address": "부산 강서구 명지동 627-28",
    "org": "진각복지재단",
    "org_type": "사회복지법인",
    "lon": 128.9027815756857,
    "lat": 35.119677938951014
  },
  {
    "name": "남광종합사회복지관",
    "address": "부산광역시 금정구 중앙대로 2349번길 3",
    "lot_address": "부산 금정구 노포동산 15-12",
    "org": "남광사회복지회",
    "org_type": "사회복지법인(직영)",
    "lon": 129.0989955545013,
    "lat": 35.29465622579163
  },
  {
    "name": "남산정종합사회복지관",
    "address": "부산광역시 북구 만덕대로 155번길 86-9",
    "lot_address": "부산 북구 덕천동 814-1",
    "org": "청록사회복지재단",
    "org_type": "사회복지법인",
    "lon": 129.020427874971,
    "lat": 35.217343912857544
  },
  {
    "name": "고양시문촌9종합사회복지관",
    "address": "경기도 고양시 일산서구 주엽로 156",
    "lot_address": "경기 고양시 일산서구 주엽동 23",
    "org": "고앤두",
    "org_type": "사회복지법인",
    "lon": 126.76117763849956,
    "lat": 37.67175519021274
  },
  {
    "name": "다대종합사회복지관",
    "address": "부산광역시 사하구 다대로 440",
    "lot_address": "부산 사하구 다대동 113-12",
    "org": "행복한오늘",
    "org_type": "사회복지법인",
    "lon": 128.9792937350643,
    "lat": 35.06367459758547
  },
  {
    "name": "다행복한종합사회복지관",
    "address": "부산광역시 기장군 기장읍 차성로 417번길 11",
    "lot_address": "부산 기장군 기장읍 교리 234-1",
    "org": "기장군도시관리공단",
    "org_type": "공단(직영)",
    "lon": 129.21517386048532,
    "lat": 35.255124638768194
  },
  {
    "name": "당감종합사회복지관",
    "address": "부산광역시 부산진구 당감서로16",
    "lot_address": "부산 부산진구 당감동 818-220",
    "org": "로사리오카리타스",
    "org_type": "사회복지법인",
    "lon": 129.03661384806585,
    "lat": 35.16229237264005
  },
  {
    "name": "덕천종합사회복지관",
    "address": "부산광역시 북구 덕천로 74",
    "lot_address": "부산 북구 덕천동 808",
    "org": "삼동회",
    "org_type": "사회복지법인",
    "lon": 129.01573893458666,
    "lat": 35.208774606354325
  },
  {
    "name": "동구종합사회복지관",
    "address": "부산광역시 동구 안창로 57",
    "lot_address": "부산 동구 범일동 1542-1",
    "org": "재단법인 한결재단",
    "org_type": "재단법인",
    "lon": 129.04256314812778,
    "lat": 35.14561972272524
  },
  {
    "name": "동래종합사회복지관",
    "address": "부산광역시 동래구 시실로107번길 151",
    "lot_address": "부산 동래구 명장동 508-72",
    "org": "양덕사회문화원",
    "org_type": "사회복지법인",
    "lon": 129.09843342896764,
    "lat": 35.21112932979766
  },
  {
    "name": "동삼종합사회복지관",
    "address": "부산광역시 영도구 상리로 30",
    "lot_address": "부산 영도구 동삼동 1121",
    "org": "불국토",
    "org_type": "사회복지법인",
    "lon": 129.06771806104132,
    "lat": 35.08329108195516
  },
  {
    "name": "동원종합사회복지관",
    "address": "부산광역시 북구 금곡대로 616번길 10-9",
    "lot_address": "부산 북구 금곡동 98-1",
    "org": "부산와이엠씨에이",
    "org_type": "재단법인",
    "lon": 129.0151950046802,
    "lat": 35.260689398371596
  },
  {
    "name": "두송종합사회복지관",
    "address": "부산광역시 사하구 다송로59",
    "lot_address": "부산 사하구 다대동 96-1",
    "org": "늘기쁜마을",
    "org_type": "사회복지법인",
    "lon": 128.98561146931218,
    "lat": 35.06193517213755
  },
  {
    "name": "만덕종합사회복지관",
    "address": "부산광역시 북구 함박봉로 140번길 102",
    "lot_address": "부산 북구 만덕동 949-1",
    "org": "로뎀복지재단",
    "org_type": "사회복지법인",
    "lon": 129.03548433995292,
    "lat": 35.20186167504232
  },
  {
    "name": "고양시원당종합사회복지관",
    "address": "경기도 고양시 덕양구 호국로716번길 13-11(성사동)",
    "lot_address": "경기 고양시 덕양구 성사동 736-2",
    "org": "행복복지재단",
    "org_type": "사회복지법인",
    "lon": 126.83296372883224,
    "lat": 37.65162745427705
  },
  {
    "name": "모라종합사회복지관",
    "address": "부산광역시 사상구 모라로110번길 129",
    "lot_address": "부산 사상구 모라동 552",
    "org": "청십자사회복지회",
    "org_type": "사회복지법인",
    "lon": 128.9953614461649,
    "lat": 35.18355550866535
  },
  {
    "name": "몰운대종합사회복지관",
    "address": "부산광역시 사하구 다대낙조2길 17 몰운대종합사회복지관",
    "lot_address": "부산 사하구 다대동 1548-12",
    "org": "내원",
    "org_type": "사회복지법인",
    "lon": 128.96350418711123,
    "lat": 35.0510771295013
  },
  {
    "name": "반석종합사회복지관",
    "address": "부산광역시 해운대구 신반송로 159",
    "lot_address": "부산 해운대구 반송동 880",
    "org": "의안복지재단",
    "org_type": "사회복지법인",
    "lon": 129.16305773198974,
    "lat": 35.22927530700048
  },
  {
    "name": "반송종합사회복지관",
    "address": "부산광역시 해운대구 아랫반송로1번길15",
    "lot_address": "부산 해운대구 반송동 697-2",
    "org": "부산YMCA",
    "org_type": "재단법인",
    "lon": 129.1469006784018,
    "lat": 35.226355714694165
  },
  {
    "name": "반여종합사회복지관",
    "address": "부산광역시 해운대구 재반로226번길 13-73",
    "lot_address": "부산 해운대구 반여동 1291-1360",
    "org": "한결재단",
    "org_type": "재단법인",
    "lon": 129.1319363591531,
    "lat": 35.1982609993475
  },
  {
    "name": "백양종합사회복지관",
    "address": "부산광역시 사상구 모라로192번길 20-33",
    "lot_address": "부산 사상구 모라동 75",
    "org": "천혜복지재단",
    "org_type": "사회복지법인",
    "lon": 129.00007722390498,
    "lat": 35.18341432835376
  },
  {
    "name": "부산광역시사직종합사회복지관",
    "address": "부산광역시 동래구 사직북로63번길 20-7",
    "lot_address": "부산 동래구 사직동 1034",
    "org": "박영학원",
    "org_type": "학교법인",
    "lon": 129.05729923523353,
    "lat": 35.19912030956266
  },
  {
    "name": "부산기독교종합사회복지관",
    "address": "부산광역시 서구 까치고개로 229번길 40",
    "lot_address": "부산 서구 토성동2가 4-1",
    "org": "태화복지재단",
    "org_type": "사회복지법인(직영)",
    "lon": 129.02112554118594,
    "lat": 35.10137162653883
  },
  {
    "name": "부산종합사회복지관(로사)",
    "address": "부산광역시 수영구 금련로 43번길 54",
    "lot_address": "부산 수영구 망미동 774-269",
    "org": "로사사회봉사회",
    "org_type": "사회복지법인(직영)",
    "lon": 129.09857060517956,
    "lat": 35.17091536676486
  },
  {
    "name": "부산종합사회복지관(어린이재단)",
    "address": "부산광역시 동구 수정공원로 15",
    "lot_address": "부산 동구 수정동 1169-3",
    "org": "어린이재단",
    "org_type": "사회복지법인",
    "lon": 129.040388139112,
    "lat": 35.12859110212594
  },
  {
    "name": "고양시원흥종합사회복지관",
    "address": "경기도 고양시 덕양구 삼원로 102",
    "lot_address": "경기 고양시 덕양구 원흥동 717",
    "org": "효샘",
    "org_type": "사회복지법인",
    "lon": 126.87276421628044,
    "lat": 37.63765296896405
  },
  {
    "name": "부산진구종합사회복지관",
    "address": "부산광역시 부산진구 복지로 117-12",
    "lot_address": "부산 부산진구 개금동산 57-9",
    "org": "부산YWCA",
    "org_type": "사단법인",
    "lon": 129.0194630379045,
    "lat": 35.14265793314574
  },
  {
    "name": "사상구종합사회복지관",
    "address": "부산광역시 사상구 백양대로 527(주례동)",
    "lot_address": "부산 사상구 주례동 1006-5",
    "org": "대한성공회유지재단",
    "org_type": "재단법인",
    "lon": 128.99474201940296,
    "lat": 35.155437438753616
  },
  {
    "name": "사하구종합사회복지관",
    "address": "부산광역시 사하구 감내2로 21",
    "lot_address": "부산 사하구 감천동 12-278",
    "org": "로사리오 카리타스",
    "org_type": "사회복지법인",
    "lon": 129.00721153639557,
    "lat": 35.09411616409449
  },
  {
    "name": "상리종합사회복지관",
    "address": "부산광역시 영도구 상리로63-16(동삼동)",
    "lot_address": "부산 영도구 동삼동 1123",
    "org": "한국재활재단",
    "org_type": "사회복지법인",
    "lon": 129.0682669451005,
    "lat": 35.08601030483456
  },
  {
    "name": "연제구거제종합사회복지관",
    "address": "부산광역시 연제구 아시아드대로46번길 45",
    "lot_address": "부산 연제구 거제동 1179-4",
    "org": "화신학원",
    "org_type": "학교법인",
    "lon": 129.07074086397154,
    "lat": 35.188238942494436
  },
  {
    "name": "연제구연산종합사회복지관",
    "address": "부산광역시 연제구 봉수로 17",
    "lot_address": "부산 연제구 연산동 2388",
    "org": "혜원",
    "org_type": "사회복지법인",
    "lon": 129.08889402480492,
    "lat": 35.172821032153536
  },
  {
    "name": "영도구종합사회복지관",
    "address": "부산광역시 영도구 산정길 138",
    "lot_address": "부산 영도구 신선동3가 112-127",
    "org": "대한예수교장로회총회고려학원",
    "org_type": "학교법인",
    "lon": 129.04762234505944,
    "lat": 35.08112636715231
  },
  {
    "name": "영진종합사회복지관",
    "address": "부산광역시 해운대구 반여로 165",
    "lot_address": "부산 해운대구 반여동 1247",
    "org": "영진복지재단",
    "org_type": "사회복지법인(직영)",
    "lon": 129.12629702149312,
    "lat": 35.20574130828326
  },
  {
    "name": "와치종합사회복지관",
    "address": "부산광역시 영도구 함지로 79번길 76",
    "lot_address": "부산 영도구 동삼동 510-9",
    "org": "남광사회복지회",
    "org_type": "사회복지법인",
    "lon": 129.06502359661346,
    "lat": 35.0751210992622
  },
  {
    "name": "용호종합사회복지관",
    "address": "부산광역시 남구 이기대공원로 7(용호동)",
    "lot_address": "부산 남구 용호동 36-7",
    "org": "문수복지재단",
    "org_type": "사회복지법인",
    "lon": 129.11339809598098,
    "lat": 35.12454669088109
  },
  {
    "name": "고양시일산종합사회복지관",
    "address": "경기도 고양시 일산서구 고양대로 654",
    "lot_address": "경기 고양시 일산서구 일산동 620-3",
    "org": "대건카리타스",
    "org_type": "사회복지법인",
    "lon": 126.7687437234353,
    "lat": 37.6844671209214
  },
  {
    "name": "운봉종합사회복지관",
    "address": "부산광역시 해운대구 신반송로 200",
    "lot_address": "부산 해운대구 반송동 77",
    "org": "홀트아동복지회",
    "org_type": "사회복지법인",
    "lon": 129.15897274170004,
    "lat": 35.23241058235321
  },
  {
    "name": "장선종합사회복지관",
    "address": "부산광역시 북구 시랑로 114번길 45(구포동)",
    "lot_address": "부산 북구 구포동 1255-2",
    "org": "장선종합복지공동체",
    "org_type": "사회복지법인",
    "lon": 129.00855041711037,
    "lat": 35.19428222738074
  },
  {
    "name": "전포종합사회복지관",
    "address": "부산광역시 부산진구 전포대로 190번길 35",
    "lot_address": "부산 부산진구 전포동 343-5",
    "org": "청십자사회복지회",
    "org_type": "사회복지법인",
    "lon": 129.06766735663973,
    "lat": 35.15369076790485
  },
  {
    "name": "절영종합사회복지관",
    "address": "부산광역시 영도구 함지로 33-10 (동삼동)",
    "lot_address": "부산 영도구 동삼동 1124-6",
    "org": "남광사회복지회",
    "org_type": "사회복지법인",
    "lon": 129.06257084277408,
    "lat": 35.07213665668934
  },
  {
    "name": "파랑새종합사회복지관",
    "address": "부산광역시 해운대구 신반송로 21",
    "lot_address": "부산 해운대구 반송동 233-4",
    "org": "성실원",
    "org_type": "사회복지법인(직영)",
    "lon": 129.15849024077687,
    "lat": 35.228871504981605
  },
  {
    "name": "해운대종합사회복지관",
    "address": "부산광역시 해운대구 재반로 12번길16",
    "lot_address": "부산 해운대구 재송동 100-9",
    "org": "인천(仁泉)사회사업재단",
    "org_type": "사회복지법인(직영)",
    "lon": 129.12784258511482,
    "lat": 35.17985661937536
  },
  {
    "name": "홀트수영종합사회복지관",
    "address": "부산광역시 수영구 장대골로 20-5",
    "lot_address": "부산 수영구 광안동 737-10",
    "org": "홀트아동복지회",
    "org_type": "사회복지법인(직영)",
    "lon": 129.11103914838728,
    "lat": 35.15932811332081
  },
  {
    "name": "화명종합사회복지관",
    "address": "부산광역시 북구 금곡대로 199번길 21",
    "lot_address": "부산 북구 화명동 2310",
    "org": "금정총림 범어",
    "org_type": "사회복지법인",
    "lon": 129.00982330382226,
    "lat": 35.22679895652281
  },
  {
    "name": "화정종합사회복지관",
    "address": "부산광역시 북구 효열로 76",
    "lot_address": "부산 북구 금곡동 1108",
    "org": "인천(仁泉)사회사업재단",
    "org_type": "사회복지법인",
    "lon": 129.01491776663318,
    "lat": 35.252592549690235
  },
  {
    "name": "(서울)북부종합사회복지관",
    "address": "서울시 노원구 동일로245길56 (상계동)",
    "lot_address": "서울 노원구 상계동 1257",
    "org": "한국봉사회",
    "org_type": "사회복지법인(직영)",
    "lon": 127.05242661819865,
    "lat": 37.679496282190414
  },
  {
    "name": "고양시지축종합사회복지관",
    "address": "경기도 고양시 지축로163 LH8단지 802동 1층",
    "lot_address": "경기 고양시 덕양구 지축동 1128",
    "org": "한벗재단",
    "org_type": "사회복지법인",
    "lon": 126.92539547222607,
    "lat": 37.64977826684654
  },
  {
    "name": "(서울)성산종합사회복지관",
    "address": "서울시 마포구 월드컵로 215",
    "lot_address": "서울 마포구 성산동 595",
    "org": "이화학당",
    "org_type": "학교법인",
    "lon": 126.9011993415979,
    "lat": 37.56435109272032
  },
  {
    "name": "가락종합사회복지관",
    "address": "서울시 송파구 양재대로 897(가락1동)",
    "lot_address": "서울 송파구 가락동 481-2",
    "org": "사회적협동조합 공감과연대",
    "org_type": "협동조합",
    "lon": 127.10725122814728,
    "lat": 37.495706292788014
  },
  {
    "name": "가양4종합사회복지관",
    "address": "서울시 강서구 양천로57길 37",
    "lot_address": "서울 강서구 가양동 1478",
    "org": "귀뚜라미복지재단",
    "org_type": "재단법인",
    "lon": 126.85259584012412,
    "lat": 37.565144661466704
  },
  {
    "name": "가양5종합사회복지관",
    "address": "서울시 강서구 양천로 57길 36, 가양5종합사회복지관",
    "lot_address": "서울 강서구 가양동 1481",
    "org": "한기장복지재단",
    "org_type": "사회복지법인",
    "lon": 126.85545097241854,
    "lat": 37.56345637046
  },
  {
    "name": "가양7종합사회복지관",
    "address": "서울시 강서구 허준로 209, 가양7종합사회복지관 2층 사무실",
    "lot_address": "서울 강서구 가양동 1486",
    "org": "글로벌비전",
    "org_type": "사단법인",
    "lon": 126.86166013297338,
    "lat": 37.561972185486056
  },
  {
    "name": "갈월종합사회복지관",
    "address": "서울시 용산구 두텁바위로 25",
    "lot_address": "서울 용산구 갈월동 51-19",
    "org": "한국장로교복지재단",
    "org_type": "사회복지법인",
    "lon": 126.97481141076241,
    "lat": 37.54581941075118
  },
  {
    "name": "강감찬관악종합사회복지관",
    "address": "서울시 관악구 양녕로 74, 2층 101호",
    "lot_address": "서울 관악구 봉천동 492-26",
    "org": "함께복지사회적협동조합",
    "org_type": "협동조합",
    "lon": 126.94671256327612,
    "lat": 37.488507488859824
  },
  {
    "name": "강남종합사회복지관",
    "address": "서울시 강남구 개포로 109길5",
    "lot_address": "서울 강남구 개포동 12",
    "org": "강남학원",
    "org_type": "학교법인",
    "lon": 127.07539302528238,
    "lat": 37.49419710732994
  },
  {
    "name": "강동종합사회복지관",
    "address": "서울시 강동구 양재대로1458, 3층(길동 411-4)",
    "lot_address": "서울 강동구 길동 411-4",
    "org": "기아대책",
    "org_type": "사회복지법인",
    "lon": 127.13960333719257,
    "lat": 37.53587749277257
  },
  {
    "name": "공릉종합사회복지관",
    "address": "서울시 노원구 동일로 1127",
    "lot_address": "서울 노원구 공릉동 708",
    "org": "복지세상사회적협동조합",
    "org_type": "협동조합",
    "lon": 127.07011431263112,
    "lat": 37.63000913290287
  },
  {
    "name": "고양시향동종합사회복지관",
    "address": "경기도 고양시 덕양후 향기5로 55",
    "lot_address": "경기 고양시 덕양구 향동동 407",
    "org": "한국재활복지회",
    "org_type": "사단법인",
    "lon": 126.89660664069339,
    "lat": 37.60696207810412
  },
  {
    "name": "광장종합사회복지관",
    "address": "광진구 아차산로 66길8",
    "lot_address": "서울 광진구 광장동 472-1",
    "org": "사랑의 집",
    "org_type": "사회복지법인",
    "lon": 127.09714063707514,
    "lat": 37.54101540348239
  },
  {
    "name": "구로종합사회복지관",
    "address": "서울시 구로구 디지털로31길 93",
    "lot_address": "서울 구로구 구로동 256-7",
    "org": "티뷰크사회복지재단",
    "org_type": "사회복지법인",
    "lon": 126.89084107316565,
    "lat": 37.486807379671234
  },
  {
    "name": "구세군강북종합사회복지관",
    "address": "서울시 강북구 인수봉로20가길 24",
    "lot_address": "서울 강북구 미아동 791-1509",
    "org": "재대한구세군유지재단",
    "org_type": "재단법인(직영)",
    "lon": 127.01341816805962,
    "lat": 37.62568124544168
  },
  {
    "name": "궁동종합사회복지관",
    "address": "서울시 구로구 오리로 22길 5",
    "lot_address": "서울 구로구 궁동 108-9",
    "org": "티뷰크사회복지재단",
    "org_type": "사회복지법인",
    "lon": 126.82974185003005,
    "lat": 37.49908880132586
  },
  {
    "name": "길음종합사회복지관",
    "address": "서울 성북구 삼양로2길 55",
    "lot_address": "서울 성북구 길음동 1289-12",
    "org": "인덕원삼천사복지재단",
    "org_type": "사회복지법인",
    "lon": 127.02669469052566,
    "lat": 37.60677335290025
  },
  {
    "name": "까리따스방배종합사회복지관",
    "address": "서울시 서초구 남부순환로 2124",
    "lot_address": "서울 서초구 방배동 3274",
    "org": "천주교까리따스수녀회유지재단",
    "org_type": "재단법인(직영)",
    "lon": 126.98417087100071,
    "lat": 37.47484164083138
  },
  {
    "name": "꿈의숲종합사회복지관",
    "address": "서울시 강북구 오현로 208, 주공아파트 302동 1층 번동3단지종합사회복지",
    "lot_address": "서울 강북구 번동 237",
    "org": "기독교대한성결교회사회사업유지재단",
    "org_type": "사회복지법인",
    "lon": 127.04229478244794,
    "lat": 37.62898885490065
  },
  {
    "name": "노원1종합사회복지관",
    "address": "서울시 노원구 월계로 372 사슴아파트1단지내",
    "lot_address": "서울 노원구 월계동 321",
    "org": "청운보은동산",
    "org_type": "사회복지법인",
    "lon": 127.06024441676871,
    "lat": 37.62999178437941
  },
  {
    "name": "녹번종합사회복지관",
    "address": "서울시 은평구 은평로21길 14-26",
    "lot_address": "서울 은평구 녹번동산 28-6",
    "org": "기독교대한감리회 사회복지재단",
    "org_type": "사회복지법인",
    "lon": 126.93182191450879,
    "lat": 37.6027637236282
  },
  {
    "name": "능인종합사회복지관",
    "address": "서울시 강남구 양재대로 340",
    "lot_address": "서울 강남구 개포동 1055",
    "org": "능인선원",
    "org_type": "사회복지법인(직영)",
    "lon": 127.05258580512832,
    "lat": 37.47174864442847
  },
  {
    "name": "고양시흰돌종합사회복지관",
    "address": "경기도 고양시 일산동구 장백로 61",
    "lot_address": "경기 고양시 일산동구 백석동 1343",
    "org": "한국YMCA전국연맹유지재단",
    "org_type": "재단법인",
    "lon": 126.78522709437496,
    "lat": 37.64228007580035
  },
  {
    "name": "대방종합사회복지관",
    "address": "서울시 동작구 여의대방로44길 47",
    "lot_address": "서울 동작구 대방동 503",
    "org": "기아대책",
    "org_type": "사회복지법인",
    "lon": 126.93014855634436,
    "lat": 37.509890226841414
  },
  {
    "name": "도봉서원종합사회복지관",
    "address": "서울시 도봉구 마들로 668",
    "lot_address": "서울 도봉구 도봉동 636-9",
    "org": "유어프렌즈",
    "org_type": "사단법인",
    "lon": 127.0465527467303,
    "lat": 37.66979304845745
  },
  {
    "name": "동대문종합사회복지관",
    "address": "서울시 동대문구 약령시로 5길 22",
    "lot_address": "서울 동대문구 제기동 220",
    "org": "삼육재단",
    "org_type": "사회복지법인",
    "lon": 127.03419280995172,
    "lat": 37.58404673982277
  },
  {
    "name": "동작이수사회복지관",
    "address": "서울시 동작구 동작대로35차길 7",
    "lot_address": "서울 동작구 사당동 52-3",
    "org": "한주재단",
    "org_type": "사회복지법인",
    "lon": 126.97688766171252,
    "lat": 37.493138996005854
  },
  {
    "name": "동작종합사회복지관",
    "address": "서울시 동작구 등용로 47",
    "lot_address": "서울 동작구 대방동 5-1",
    "org": "서울가톨릭사회복지회",
    "org_type": "사회복지법인",
    "lon": 126.93342019890608,
    "lat": 37.50570917563624
  },
  {
    "name": "등촌1종합사회복지관",
    "address": "서울 강서구 강서로 68길 36",
    "lot_address": "서울 강서구 등촌동 687",
    "org": "유린보은동산",
    "org_type": "사회복지법인",
    "lon": 126.8426413888733,
    "lat": 37.56498738605501
  },
  {
    "name": "등촌4종합사회복지관",
    "address": "서울시 강서구 공항대로39길 59, 등촌4종합사회복지관",
    "lot_address": "서울 강서구 등촌동 690",
    "org": "유니월드",
    "org_type": "사회복지법인",
    "lon": 126.8432769483139,
    "lat": 37.56152870736107
  },
  {
    "name": "등촌7종합사회복지관",
    "address": "서울시 강서구 공항대로 43길 104(등촌동)",
    "lot_address": "서울 강서구 등촌동 707",
    "org": "서울가톨릭사회복지회",
    "org_type": "사회복지법인",
    "lon": 126.8517585874613,
    "lat": 37.56077213469228
  },
  {
    "name": "등촌9종합사회복지관",
    "address": "서울시 강서구 화곡로 63가길 92",
    "lot_address": "서울 강서구 등촌동 704",
    "org": "우리모두복지재단",
    "org_type": "사회복지법인",
    "lon": 126.84971884697423,
    "lat": 37.56161299407549
  },
  {
    "name": "마들종합사회복지관",
    "address": "서울시 노원구 동일로210길 22",
    "lot_address": "서울 노원구 중계동 515-3",
    "org": "성민",
    "org_type": "사회복지법인",
    "lon": 127.06535122891911,
    "lat": 37.64735253045167
  },
  {
    "name": "삼척시종합사회복지관",
    "address": "강원도 삼척시 원당로 2길 72-6",
    "lot_address": "강원 삼척시 원당동 62",
    "org": "원주가톨릭사회복지회",
    "org_type": "사회복지법인",
    "lon": 129.15255533259096,
    "lat": 37.43748897289997
  },
  {
    "name": "과천종합사회복지관",
    "address": "경기도 과천시 별양상가 1로 10, 과천타워 3층",
    "lot_address": "경기 과천시 별양동 1-17",
    "org": "대한불교조계종사회복지재단",
    "org_type": "사회복지법인",
    "lon": 126.99203099320479,
    "lat": 37.4269775817245
  },
  {
    "name": "마천종합사회복지관",
    "address": "서울시 송파구 마천로65길 4",
    "lot_address": "서울 송파구 마천동 323-197",
    "org": "섬김과나눔",
    "org_type": "사단법인",
    "lon": 127.15562281376724,
    "lat": 37.49177398783658
  },
  {
    "name": "면목종합사회복지관",
    "address": "서울시 중랑구 용마산로 228",
    "lot_address": "서울 중랑구 면목동 1382",
    "org": "자광재단",
    "org_type": "사회복지법인",
    "lon": 127.08783986465146,
    "lat": 37.57389489400329
  },
  {
    "name": "목동종합사회복지관",
    "address": "서울시 양천구 목동중앙북로8길 104",
    "lot_address": "서울 양천구 목동 552-1",
    "org": "좋은사람들",
    "org_type": "사단법인",
    "lon": 126.86636178377707,
    "lat": 37.54452801317995
  },
  {
    "name": "반포종합사회복지관",
    "address": "서울시 서초구 신반포로 33길 22 반포종합사회복지관",
    "lot_address": "서울 서초구 잠원동 60-5",
    "org": "사랑의복지재단",
    "org_type": "사회복지법인",
    "lon": 127.01101242983324,
    "lat": 37.50996780337884
  },
  {
    "name": "방아골종합사회복지관",
    "address": "서울시 도봉구 시루봉로17길 42",
    "lot_address": "서울 도봉구 방학동 396-19",
    "org": "일촌공동체",
    "org_type": "사단법인",
    "lon": 127.03257509160528,
    "lat": 37.669353742852834
  },
  {
    "name": "방화11종합사회복지관",
    "address": "서울시 강서구 개화동로 21길 4",
    "lot_address": "서울 강서구 방화동 851",
    "org": "서울YMCA(서울기독교청년유지재단)",
    "org_type": "재단법인",
    "lon": 126.80541310376891,
    "lat": 37.57013096710034
  },
  {
    "name": "방화2종합사회복지관",
    "address": "서울시 강서구 방화대로 48길 40",
    "lot_address": "서울 강서구 방화동 839",
    "org": "굿네이버스",
    "org_type": "사회복지법인",
    "lon": 126.81912533320553,
    "lat": 37.57466439450842
  },
  {
    "name": "방화6종합사회복지관",
    "address": "서울시 강서구 금낭화로 23길 25, 방화6종합사회복지관",
    "lot_address": "서울 강서구 방화동 816",
    "org": "귀뚜라미복지재단",
    "org_type": "재단법인",
    "lon": 126.8107810119522,
    "lat": 37.5783858620331
  },
  {
    "name": "번오마을종합사회복지관",
    "address": "서울시 강북구 한천로115길 20",
    "lot_address": "서울 강북구 번동 229",
    "org": "혜명복지원",
    "org_type": "사회복지법인",
    "lon": 127.03382794728255,
    "lat": 37.6333628559293
  },
  {
    "name": "북서울종합사회복지관",
    "address": "서울시 강북구 한천로 105길 24, 202동",
    "lot_address": "서울 강북구 번동 241",
    "org": "삼동회",
    "org_type": "사회복지법인",
    "lon": 127.04550902747256,
    "lat": 37.62669925788674
  },
  {
    "name": "광교종합사회복지관",
    "address": "경기도 수원시 영통구 대학2로 41",
    "lot_address": "경기 수원시 영통구 이의동 1259-4",
    "org": "꿈행복나눔재단",
    "org_type": "재단법인",
    "lon": 127.04664344937046,
    "lat": 37.29939150012055
  },
  {
    "name": "사당종합사회복지관",
    "address": "서울시 동작구 사당로14길 20",
    "lot_address": "서울 동작구 사당동 268-6",
    "org": "한국다문화청소년협회",
    "org_type": "사단법인",
    "lon": 126.97141215117728,
    "lat": 37.48330323225542
  },
  {
    "name": "사랑의전화마포종합사회복지관",
    "address": "서울시 마포구 만리재로29",
    "lot_address": "서울 마포구 신공덕동 15-66",
    "org": "사랑의전화복지재단",
    "org_type": "사회복지법인(직영)",
    "lon": 126.95457993994302,
    "lat": 37.54475499093522
  },
  {
    "name": "삼전종합사회복지관",
    "address": "서울시 송파구 백제고분로32길 35",
    "lot_address": "서울 송파구 삼전동 172",
    "org": "승가원",
    "org_type": "사회복지법인",
    "lon": 127.09494543013915,
    "lat": 37.49912703490233
  },
  {
    "name": "상계종합사회복지관",
    "address": "서울시 노원구 덕릉로 115나길 25",
    "lot_address": "서울 노원구 상계동 101-135",
    "org": "서울가톨릭사회복지회",
    "org_type": "사회복지법인",
    "lon": 127.07844243876664,
    "lat": 37.6679345092887
  },
  {
    "name": "상도종합사회복지관",
    "address": "서울시 동작구 상도로39가길 7(상도1동 456)",
    "lot_address": "서울 동작구 상도1동 456",
    "org": "기독교대한성결교회사회사업유지재단",
    "org_type": "사회복지법인(직영)",
    "lon": 126.94960655201223,
    "lat": 37.50249844617172
  },
  {
    "name": "생명의전화종합사회복지관",
    "address": "서울시 성북구 오패산로21",
    "lot_address": "서울 성북구 하월곡동 96-113",
    "org": "한국생명의전화",
    "org_type": "사회복지법인(직영)",
    "lon": 127.03608871263461,
    "lat": 37.60490088216232
  },
  {
    "name": "서대문종합사회복지관",
    "address": "서울시 서대문구 모래내로 177",
    "lot_address": "서울 서대문구 남가좌동 115-63",
    "org": "동방사회복지회",
    "org_type": "사회복지법인",
    "lon": 126.9202374417643,
    "lat": 37.57143409536096
  },
  {
    "name": "서울YWCA봉천종합사회복지관",
    "address": "서울시 관악구 관악로 254",
    "lot_address": "서울 관악구 봉천동 37",
    "org": "YWCA복지사업단",
    "org_type": "사회복지법인(직영)",
    "lon": 126.95752223701741,
    "lat": 37.48668501374944
  },
  {
    "name": "서울시립대학교종합사회복지관",
    "address": "서울시 중랑구 신내로 115",
    "lot_address": "서울 중랑구 신내동 660",
    "org": "서울시립대학교",
    "org_type": "학교법인",
    "lon": 127.09456699998637,
    "lat": 37.609351181073905
  },
  {
    "name": "성내종합사회복지관",
    "address": "서울시 강동구 성안로13길 56",
    "lot_address": "서울 강동구 성내동 508-1",
    "org": "경복대학교산학협력단",
    "org_type": "학교법인",
    "lon": 127.12936775916143,
    "lat": 37.53222880862133
  },
  {
    "name": "구리시종합사회복지관",
    "address": "경기도 구리시 벌말로129번길 50",
    "lot_address": "경기 구리시 토평동 984",
    "org": "삼육재단",
    "org_type": "사회복지법인",
    "lon": 127.14648627877233,
    "lat": 37.58922530714666
  },
  {
    "name": "성동종합사회복지관",
    "address": "서울시 성동구 청계천로 506 성동종합사회복지관 4층 통합사무실",
    "lot_address": "서울 성동구 마장동 527-2",
    "org": "성모성심수도회",
    "org_type": "재단법인",
    "lon": 127.03367686966455,
    "lat": 37.57038616828142
  },
  {
    "name": "성민종합사회복지관",
    "address": "서울시 관악구 호암로 549",
    "lot_address": "서울 관악구 신림동 300-1",
    "org": "경향복지재단",
    "org_type": "사회복지법인(직영)",
    "lon": 126.93103358779558,
    "lat": 37.466720919262286
  },
  {
    "name": "성수종합사회복지관",
    "address": "서울시 성동구 뚝섬로1길 43, 5~6층",
    "lot_address": "서울 성동구 성수동1가 656-323",
    "org": "한양학원",
    "org_type": "학교법인",
    "lon": 127.04697984373708,
    "lat": 37.545434955675134
  },
  {
    "name": "송파종합사회복지관",
    "address": "서울시 송파구 오금로51길34",
    "lot_address": "서울 송파구 거여동 5-8",
    "org": "월드비전",
    "org_type": "사회복지법인(직영)",
    "lon": 127.14180851560451,
    "lat": 37.49830760392619
  },
  {
    "name": "수서명화종합사회복지관",
    "address": "서울시 강남구 광평로 51길 49",
    "lot_address": "서울 강남구 수서동 707",
    "org": "휴먼복지회",
    "org_type": "사회복지법인",
    "lon": 127.10038659228485,
    "lat": 37.491104229684915
  },
  {
    "name": "수서종합사회복지관",
    "address": "서울시 강남구 광평로56길11",
    "lot_address": "서울 강남구 수서동 723",
    "org": "닮복지재단",
    "org_type": "사회복지법인",
    "lon": 127.10460117167979,
    "lat": 37.487540701386536
  },
  {
    "name": "신길종합사회복지관",
    "address": "서울시 영등포구 영등포로84길 24-5",
    "lot_address": "서울 영등포구 신길동 465-1",
    "org": "대한불교조계종봉은",
    "org_type": "사회복지법인",
    "lon": 126.92145632770468,
    "lat": 37.51114683247611
  },
  {
    "name": "신내종합사회복지관",
    "address": "서울시 중랑구 봉화산로 153, 신내12단지아파트 신내종합사회복지관",
    "lot_address": "서울 중랑구 상봉동 481",
    "org": "애원복지재단",
    "org_type": "사회복지법인",
    "lon": 127.09100049344703,
    "lat": 37.60532671496
  },
  {
    "name": "신당종합사회복지관",
    "address": "서울시 중구 동호로 11길 22",
    "lot_address": "서울 중구 신당동 361-18",
    "org": "서울가톨릭사회복지회",
    "org_type": "사회복지법인",
    "lon": 127.00951294554429,
    "lat": 37.55429540238553
  },
  {
    "name": "신림종합사회복지관",
    "address": "서울시 관악구 난곡로 110",
    "lot_address": "서울 관악구 신림동 664",
    "org": "일송학원",
    "org_type": "학교법인",
    "lon": 126.91982675251099,
    "lat": 37.46485227448949
  },
  {
    "name": "군포시가야종합사회복지관",
    "address": "경기도 군포시 번영로 331-1, 2층",
    "lot_address": "경기 군포시 산본동 1155-7",
    "org": "한국기독교청년회전국연맹유지재단(군포YMCA)",
    "org_type": "재단법인",
    "lon": 126.92314322000868,
    "lat": 37.34547738396061
  },
  {
    "name": "서울시립신목종합사회복지관",
    "address": "서울시 양천구 신목로5",
    "lot_address": "서울 양천구 신정동 1278-1",
    "org": "복지동행사회적협동조합",
    "org_type": "협동조합",
    "lon": 126.8765226920914,
    "lat": 37.51694108513236
  },
  {
    "name": "신사종합사회복지관",
    "address": "서울시 은평구 은평로 38",
    "lot_address": "서울 은평구 신사동 26-18",
    "org": "대한불교조계종사회복지재단",
    "org_type": "사회복지법인",
    "lon": 126.91220718819736,
    "lat": 37.59808486991203
  },
  {
    "name": "신월종합사회복지관",
    "address": "서울시 양천구 신월로24길 19",
    "lot_address": "서울 양천구 신월동 1063-1",
    "org": "한주재단",
    "org_type": "사회복지법인",
    "lon": 126.84732643054122,
    "lat": 37.52017582026082
  },
  {
    "name": "신정종합사회복지관",
    "address": "서울시 양천구 신정중앙로 36",
    "lot_address": "서울 양천구 신정동 919-6",
    "org": "기아대책",
    "org_type": "사회복지법인",
    "lon": 126.85560851382456,
    "lat": 37.52726674160561
  },
  {
    "name": "양재종합사회복지관",
    "address": "서울시 서초구 남부순환로 2610 양재종합사회복지관",
    "lot_address": "서울 서초구 양재동 11-13",
    "org": "대한불교조계종 봉은",
    "org_type": "사회복지법인",
    "lon": 127.03617137430724,
    "lat": 37.484573977615725
  },
  {
    "name": "염리종합사회복지관",
    "address": "서울시 마포구 대흥로 24길 50",
    "lot_address": "서울 마포구 염리동 532-2",
    "org": "대한사회복지회",
    "org_type": "사회복지법인",
    "lon": 126.9487478704961,
    "lat": 37.554638012367164
  },
  {
    "name": "영등포종합사회복지관",
    "address": "서울시 영등포구 신길로13길 4",
    "lot_address": "서울 영등포구 신길동 440-56",
    "org": "초록우산어린이재단",
    "org_type": "사회복지법인",
    "lon": 126.90783028433609,
    "lat": 37.49738634786868
  },
  {
    "name": "옥수종합사회복지관",
    "address": "서울시 성동구 한림말길 16-5",
    "lot_address": "서울 성동구 옥수동 204-8",
    "org": "대한불교조계종사회복지재단",
    "org_type": "사회복지법인",
    "lon": 127.01274877815581,
    "lat": 37.54044999543825
  },
  {
    "name": "우면종합사회복지관",
    "address": "서울시 서초구 바우뫼로 7길11 우면종합사회복지",
    "lot_address": "서울 서초구 우면동 63",
    "org": "대한불교천태종복지재단",
    "org_type": "사회복지법인",
    "lon": 127.02420965762084,
    "lat": 37.47010804854365
  },
  {
    "name": "월곡종합사회복지관",
    "address": "서울시 성북구 오패산로16길 23",
    "lot_address": "서울 성북구 하월곡동 222-5",
    "org": "혜명복지원",
    "org_type": "사회복지법인",
    "lon": 127.03750343772953,
    "lat": 37.608874144531796
  },
  {
    "name": "군포시매화종합사회복지관",
    "address": "경기도 군포시 곡란로22",
    "lot_address": "경기 군포시 산본동 1055",
    "org": "연꽃마을",
    "org_type": "사회복지법인",
    "lon": 126.93565384487115,
    "lat": 37.37452459972057
  },
  {
    "name": "유락종합사회복지관",
    "address": "서울시 중구 퇴계로 460",
    "lot_address": "서울 중구 신당동 160-2",
    "org": "서울가톨릭사회복지회",
    "org_type": "사회복지법인",
    "lon": 127.02281194478095,
    "lat": 37.56509777068429
  },
  {
    "name": "유린원광종합사회복지관",
    "address": "서울시 중랑구 신내로 56",
    "lot_address": "서울 중랑구 신내동 572-2",
    "org": "유린보은동산",
    "org_type": "사회복지법인(직영)",
    "lon": 127.09600447281841,
    "lat": 37.60418366363179
  },
  {
    "name": "이화여자대학교종합사회복지관",
    "address": "서울시 서대문구 이화여대길 52",
    "lot_address": "서울 서대문구 대현동 11-1",
    "org": "이화학당",
    "org_type": "학교법인",
    "lon": 126.9478075656925,
    "lat": 37.56317364723607
  },
  {
    "name": "자양종합사회복지관",
    "address": "서울시 광진구 자양번영로 35",
    "lot_address": "서울 광진구 자양동 581-2",
    "org": "대한불교조계종사회복지재단",
    "org_type": "사회복지법인(직영)",
    "lon": 127.07522755433344,
    "lat": 37.53289524831817
  },
  {
    "name": "장안종합사회복지관",
    "address": "서울시 동대문구 한천로 18길 48",
    "lot_address": "서울 동대문구 장안동 395-2",
    "org": "닮복지재단",
    "org_type": "사회복지법인",
    "lon": 127.06616861324409,
    "lat": 37.56799532218909
  },
  {
    "name": "정릉종합사회복지관",
    "address": "서울시 성북구 솔샘로5길 92",
    "lot_address": "서울 성북구 정릉동산 1-293",
    "org": "SW복지재단",
    "org_type": "사회복지법인",
    "lon": 127.00126091192797,
    "lat": 37.61117146372942
  },
  {
    "name": "종로종합사회복지관",
    "address": "서울 종로구 지봉로13길 82",
    "lot_address": "서울 종로구 창신동 23-344",
    "org": "새문안교회사회복지재단",
    "org_type": "사회복지법인",
    "lon": 127.01246330032225,
    "lat": 37.57727906483787
  },
  {
    "name": "중계종합사회복지관",
    "address": "서울시 노원구 덕릉로 662",
    "lot_address": "서울 노원구 중계동 358",
    "org": "한국봉사회",
    "org_type": "사회복지법인",
    "lon": 127.07639170657578,
    "lat": 37.65670567702124
  },
  {
    "name": "중곡종합사회복지관",
    "address": "서울시 광진구 용마산로3길 62",
    "lot_address": "서울 광진구 중곡동 134-18",
    "org": "서울가톨릭사회복지회",
    "org_type": "사회복지법인",
    "lon": 127.08481097415758,
    "lat": 37.55666393177683
  },
  {
    "name": "중앙사회복지관",
    "address": "서울시 관악구 봉천로 41길 33",
    "lot_address": "서울 관악구 봉천동 890-7",
    "org": "복지동행사회적협동조",
    "org_type": "협동조합",
    "lon": 126.94807226502468,
    "lat": 37.48434527952992
  },
  {
    "name": "군포시주몽종합사회복지관",
    "address": "경기도 군포시 광정로 122(산본동, 주몽10단지 내)",
    "lot_address": "경기 군포시 산본동 1120",
    "org": "한기장복지재단",
    "org_type": "사회복지법인",
    "lon": 126.92795443500702,
    "lat": 37.36348729257748
  },
  {
    "name": "창동종합사회복지관",
    "address": "서울시 도봉구 덕릉로329",
    "lot_address": "서울 도봉구 창동 374",
    "org": "여의도순복음",
    "org_type": "재단법인",
    "lon": 127.04553660134923,
    "lat": 37.64483334707529
  },
  {
    "name": "청담종합사회복지관",
    "address": "서울시 금천구 금하로29길 36",
    "lot_address": "서울 금천구 시흥동 241-7",
    "org": "혜명",
    "org_type": "사회복지법인",
    "lon": 126.91378626338921,
    "lat": 37.451285587796406
  },
  {
    "name": "태화기독교사회복지관",
    "address": "서울시 강남구 광평로185",
    "lot_address": "서울 강남구 수서동 741",
    "org": "태화복지재단",
    "org_type": "사회복지법인(직영)",
    "lon": 127.09332376140827,
    "lat": 37.48489946282716
  },
  {
    "name": "평화종합사회복지관",
    "address": "서울시 노원구 노원로 331",
    "lot_address": "서울 노원구 중계동 514-3",
    "org": "함께하는복지",
    "org_type": "사단법인",
    "lon": 127.06882898542116,
    "lat": 37.64668936399866
  },
  {
    "name": "풍납종합사회복지관",
    "address": "서울시 송파구 강동대로3길 5",
    "lot_address": "서울 송파구 풍납동 330-1",
    "org": "복지동행사회적협동조합",
    "org_type": "협동조합",
    "lon": 127.11387271228523,
    "lat": 37.527779825232415
  },
  {
    "name": "하계종합사회복지관",
    "address": "서울시 노원구 노원로16길15",
    "lot_address": "서울 노원구 하계동 256",
    "org": "대한불교조계종사회복지재단",
    "org_type": "사회복지법인",
    "lon": 127.07435517816276,
    "lat": 37.643076113779145
  },
  {
    "name": "한빛종합사회복지관",
    "address": "서울시 양천구 신월로11길 16",
    "lot_address": "서울 양천구 신월동 540-1",
    "org": "서울가톨릭사회복지회",
    "org_type": "사회복지법인",
    "lon": 126.84020020080402,
    "lat": 37.51913425370789
  },
  {
    "name": "홍은종합사회복지관",
    "address": "서울시 서대문구 세검정로1길 116",
    "lot_address": "서울 서대문구 홍은동 48-20",
    "org": "대한예수교장로회총회(합동측)복지재단",
    "org_type": "사회복지법인",
    "lon": 126.9464375436569,
    "lat": 37.595384802790605
  },
  {
    "name": "화원종합사회복지관",
    "address": "서울시 구로구 벚꽃로484",
    "lot_address": "서울 구로구 구로동 476-134",
    "org": "한국장로교복지재단",
    "org_type": "사회복지법인",
    "lon": 126.88007733445255,
    "lat": 37.497285706608764
  },
  {
    "name": "효창종합사회복지관",
    "address": "서울시 용산구 효창원로 146-12(효창동)",
    "lot_address": "서울 용산구 효창동 5-65",
    "org": "기독교한국침례회유지재단",
    "org_type": "재단법인",
    "lon": 126.96297322982599,
    "lat": 37.54116036450428
  },
  {
    "name": "김포시제2종합사회복지관",
    "address": "경기도 김포시 통진읍 마송리 502",
    "lot_address": "경기 김포시 통진읍 마송리 502번지",
    "org": "김포복지재단",
    "org_type": "재단법인",
    "lon": 126.59290654885714,
    "lat": 37.68803479996442
  },
  {
    "name": "흑석종합사회복지관",
    "address": "서울시 동작구 흑석로13길 21",
    "lot_address": "서울 동작구 흑석동 341-3",
    "org": "대한불교조계종사회복지재단",
    "org_type": "사회복지법인",
    "lon": 126.95941262898187,
    "lat": 37.50975636142556
  },
  {
    "name": "(울산)중구종합사회복지관",
    "address": "울산광역시 중구 종가 3길 15",
    "lot_address": "울산 중구 유곡동 216-3",
    "org": "물푸레복지재단",
    "org_type": "사회복지법인",
    "lon": 129.29611431956562,
    "lat": 35.56176485551994
  },
  {
    "name": "북구종합사회복지관",
    "address": "울산광역시 북구 동대8길 40",
    "lot_address": "울산 북구 호계동 262-2",
    "org": "어울림복지재단",
    "org_type": "사회복지법인",
    "lon": 129.35396586986354,
    "lat": 35.631475858244194
  },
  {
    "name": "울산남구종합사회복지관",
    "address": "울산광역시 남구 번영로 107번길 13(달동)",
    "lot_address": "울산 남구 달동 119-1",
    "org": "통도사자비원",
    "org_type": "사회복지법인",
    "lon": 129.32826972522156,
    "lat": 35.533819033591826
  },
  {
    "name": "울산동구종합사회복지관",
    "address": "울산광역시 동구 봉수로 155",
    "lot_address": "울산 동구 화정동 222",
    "org": "친한친구들",
    "org_type": "사단법인",
    "lon": 129.4172270340843,
    "lat": 35.50557663095364
  },
  {
    "name": "울산화정종합사회복지관",
    "address": "울산광역시 동구 월봉10길 14",
    "lot_address": "울산 동구 화정동 862-2",
    "org": "진각복지재단",
    "org_type": "사회복지법인",
    "lon": 129.41906072282723,
    "lat": 35.49431712614995
  },
  {
    "name": "울주군남부종합사회복지관",
    "address": "울산광역시 울주군 온산읍 덕신1길 4, 2층~4층",
    "lot_address": "울산 울주군 온산읍 덕신리 1303-1",
    "org": "울주군시설관리공단",
    "org_type": "지자체(직영)",
    "lon": 129.3121435986452,
    "lat": 35.43436300132451
  },
  {
    "name": "울주군서부종합사회복지관",
    "address": "울산광역시 울주군 언양읍 읍성로169",
    "lot_address": "울산 울주군 언양읍 동부리 376-3",
    "org": "울주군시설관리공단",
    "org_type": "지자체(직영)",
    "lon": 129.12586374438874,
    "lat": 35.57021586767093
  },
  {
    "name": "울주군중부종합사회복지관",
    "address": "울산광역시 울주군 범서읍 천상4길 28-14",
    "lot_address": "울산 울주군 범서읍 천상리 649-1",
    "org": "울주군시설관리공단",
    "org_type": "지자체(직영)",
    "lon": 129.2254483084452,
    "lat": 35.561596173278794
  },
  {
    "name": "(인천)성산종합사회복지관",
    "address": "인천광역시 남동구 석정로552",
    "lot_address": "인천 남동구 간석동 606",
    "org": "성산하모니복지재단",
    "org_type": "사회복지법인(직영)",
    "lon": 126.69709914651965,
    "lat": 37.46584344318724
  },
  {
    "name": "김포시종합사회복지관",
    "address": "경기도 김포시 사우중로 100",
    "lot_address": "경기 김포시 사우동 870",
    "org": "나눔과섬김",
    "org_type": "사단법인",
    "lon": 126.72233913132459,
    "lat": 37.62307053758788
  },
  {
    "name": "갈산종합사회복지관",
    "address": "인천광역시 부평구 주부토로 206",
    "lot_address": "인천 부평구 갈산동 360",
    "org": "인천가톨릭사회복지회",
    "org_type": "사회복지법인",
    "lon": 126.72756086716204,
    "lat": 37.513249199915464
  },
  {
    "name": "계양종합사회복지관",
    "address": "인천광역시 계양구 아나지로 517",
    "lot_address": "인천 계양구 서운동 130-5",
    "org": "명성복지회",
    "org_type": "사회복지법인",
    "lon": 126.74988175599805,
    "lat": 37.52660544781902
  },
  {
    "name": "구월종합사회복지관",
    "address": "인천광역시 남동구 선수촌로7 702동 1층",
    "lot_address": "인천 남동구 구월동 1551",
    "org": "남동구청",
    "org_type": "지자체(직영)",
    "lon": 126.71364318981112,
    "lat": 37.440161833233674
  },
  {
    "name": "논현종합사회복지관",
    "address": "인천광역시 남동구 호구포로 292",
    "lot_address": "인천 남동구 논현동 581-4",
    "org": "남동구청",
    "org_type": "지자체(직영)",
    "lon": 126.71325171831526,
    "lat": 37.40822743583838
  },
  {
    "name": "만수종합사회복지관",
    "address": "인천광역시 남동구 담방로105",
    "lot_address": "인천 남동구 만수동 1005",
    "org": "남동구청",
    "org_type": "지자체(직영)",
    "lon": 126.73815036514145,
    "lat": 37.4498770533834
  },
  {
    "name": "만월종합사회복지관",
    "address": "인천광역시 남동구 서판로 54번길 12",
    "lot_address": "인천 남동구 만수동 844-15",
    "org": "남동구청",
    "org_type": "지자체(직영)",
    "lon": 126.72548530296437,
    "lat": 37.463561502846524
  },
  {
    "name": "미추홀종합사회복지관",
    "address": "인천광역시 미추홀구 염창로 97",
    "lot_address": "인천 미추홀구 주안동 22-59",
    "org": "온세상나눔재단",
    "org_type": "사단법인",
    "lon": 126.68495754150305,
    "lat": 37.46552736104539
  },
  {
    "name": "백령종합사회복지관",
    "address": "인천광역시 옹진군 백령면 백령로 271번길 20",
    "lot_address": "인천 옹진군 백령면 진촌리 700-2",
    "org": "웅진복지재단",
    "org_type": "재단법인(직영)",
    "lon": 124.72003641196793,
    "lat": 37.97058805344136
  },
  {
    "name": "부평중부종합사회복지관",
    "address": "인천광역시 부평구 경원대로 1418번길13",
    "lot_address": "인천 부평구 부평동 182-23",
    "org": "기독교대한감리회 사회복지재단",
    "org_type": "사회복지법인(직영)",
    "lon": 126.72660003134169,
    "lat": 37.4905169482746
  },
  {
    "name": "삼산종합사회복지관",
    "address": "인천광역시 부평구 평천로447, 107동 1,2층 삼산복지관",
    "lot_address": "인천 부평구 삼산동 157",
    "org": "인천YWCA",
    "org_type": "사단법인",
    "lon": 126.74022670010424,
    "lat": 37.51784889000008
  },
  {
    "name": "남양주시남부희망케어센터",
    "address": "경기도 남양주시 와부 월문천로35 별관 1층",
    "lot_address": "경기 남양주시 와부읍 덕소리 117-1",
    "org": "남양주시복지재단",
    "org_type": "재단법인",
    "lon": 127.21685451592202,
    "lat": 37.5853831954084
  },
  {
    "name": "선학종합사회복지관",
    "address": "인천광역시 연수구 선학로 14",
    "lot_address": "인천 연수구 선학동 347",
    "org": "대한예수교장로회총회(복지재단)",
    "org_type": "사회복지법인",
    "lon": 126.69655496690149,
    "lat": 37.41885022458716
  },
  {
    "name": "성미가엘종합사회복지관",
    "address": "인천광역시 중구 송학로 40",
    "lot_address": "인천 중구 내동 3-5",
    "org": "대한성공회유지재단",
    "org_type": "재단법인(직영)",
    "lon": 126.62727566876382,
    "lat": 37.47443117976889
  },
  {
    "name": "세화종합사회복지관",
    "address": "인천광역시 연수구 원인재로 315",
    "lot_address": "인천 연수구 연수동 533",
    "org": "기독교대한감리회사회복지재단",
    "org_type": "사회복지법인",
    "lon": 126.69176273585882,
    "lat": 37.42127392350167
  },
  {
    "name": "송림종합사회복지관",
    "address": "인천광역시 동구 송림로 43번길 35",
    "lot_address": "인천 동구 송림동 193-1",
    "org": "사랑의샘",
    "org_type": "사회복지법인(직영)",
    "lon": 126.63974201595548,
    "lat": 37.47604867000433
  },
  {
    "name": "숭의종합사회복지관",
    "address": "인천광역시 미추홀구 독배로 485",
    "lot_address": "인천 미추홀구 숭의동 303-7",
    "org": "기독교대한감리회 사회복지재단",
    "org_type": "사회복지법인(직영)",
    "lon": 126.64488505886723,
    "lat": 37.46090279762322
  },
  {
    "name": "연수종합사회복지관",
    "address": "인천광역시 연수구 원인재로 212",
    "lot_address": "인천 연수구 연수동 582-2",
    "org": "온세상나눔재단",
    "org_type": "사단법인",
    "lon": 126.68812099209369,
    "lat": 37.41486702334804
  },
  {
    "name": "인천기독교종합사회복지관",
    "address": "인천광역시 서구 심곡로 124번길 10",
    "lot_address": "인천 서구 심곡동 14-5",
    "org": "감리회 태화복지재단",
    "org_type": "사회복지법인(직영)",
    "lon": 126.68275010838272,
    "lat": 37.5441406424235
  },
  {
    "name": "인천종합사회복지관",
    "address": "인천광역시 미추홀구 매소홀로 418번길 14-57",
    "lot_address": "인천 미추홀구 학익동 686-9",
    "org": "백암재단",
    "org_type": "사회복지법인(직영)",
    "lon": 126.66696781455568,
    "lat": 37.43903493220303
  },
  {
    "name": "창영종합사회복지관",
    "address": "인천광역시 동구 우각로57",
    "lot_address": "인천 동구 창영동 42-3",
    "org": "기독교대한감리회유지재단",
    "org_type": "재단법인(직영)",
    "lon": 126.64100103438602,
    "lat": 37.4707271465076
  },
  {
    "name": "함박종합사회복지관",
    "address": "인천광역시 연수구 함박안로217",
    "lot_address": "인천 연수구 연수동 652",
    "org": "대한불교조계종사회복지재단",
    "org_type": "사회복지법인",
    "lon": 126.68739045299952,
    "lat": 37.425838589132894
  },
  {
    "name": "남양주시동부희망케어센터",
    "address": "경기도 남양주시 화도읍 경춘로달뫼1길 20-8",
    "lot_address": "경기 남양주시 화도읍 월산리 141-2",
    "org": "남양주시복지재단",
    "org_type": "재단법인",
    "lon": 127.33127395891776,
    "lat": 37.65229159059173
  },
  {
    "name": "구례군종합사회복지관",
    "address": "전남 구례군 구례읍 구례로 508",
    "lot_address": "전남 구례군 구례읍 봉동리 115-3",
    "org": "구례군",
    "org_type": "지자체(직영)",
    "lon": 127.47020822341506,
    "lat": 35.206452626661886
  },
  {
    "name": "목포시종합사회복지관",
    "address": "전남 목포시 고하대로 712",
    "lot_address": "전남 목포시 산정동 1749",
    "org": "가톨릭광주사회복지회",
    "org_type": "사회복지법인",
    "lon": 126.374935033853,
    "lat": 34.80981924921962
  },
  {
    "name": "무안군종합사회복지관",
    "address": "전남 무안군 일로읍 삼일로 493",
    "lot_address": "전남 무안군 일로읍 월암리 214-2",
    "org": "초당대학교 산학협력단",
    "org_type": "학교법인",
    "lon": 126.49019210334748,
    "lat": 34.8512734998769
  },
  {
    "name": "문수종합사회복지관",
    "address": "전남 여수시 여문2로 11-10",
    "lot_address": "전남 여수시 문수동 797",
    "org": "대한불교조계종사회복지재단",
    "org_type": "사회복지법인",
    "lon": 127.69280518320438,
    "lat": 34.74983076023662
  },
  {
    "name": "미평종합사회복지관",
    "address": "전남 여수시 미평로 77-1",
    "lot_address": "전남 여수시 미평동 284",
    "org": "보듬의료재단",
    "org_type": "의료법인",
    "lon": 127.70818255168479,
    "lat": 34.77028405298282
  },
  {
    "name": "보성종합사회복지관",
    "address": "전남 보성군 보성읍 동인길 18-6",
    "lot_address": "전남 보성군 보성읍 보성리 229-1",
    "org": "대한예수교장로회 순천노회유지재단",
    "org_type": "재단법인",
    "lon": 127.08334847290294,
    "lat": 34.77045430064646
  },
  {
    "name": "소라종합사회복지관",
    "address": "전남 여수시 소라면 덕양로 414",
    "lot_address": "전남 여수시 소라면 덕양리 1230",
    "org": "대한예수교장로회순천노회유지재단",
    "org_type": "재단법인",
    "lon": 127.63319897972846,
    "lat": 34.794902735060624
  },
  {
    "name": "순천조례종합사회복지관",
    "address": "전남 순천시 신월큰길54, 단지 내",
    "lot_address": "전남 순천시 조례동 1666",
    "org": "소비자교육중앙회",
    "org_type": "사단법인",
    "lon": 127.51552425455645,
    "lat": 34.961426232624774
  },
  {
    "name": "순천종합사회복지관",
    "address": "전남 순천시 저전길 84",
    "lot_address": "전남 순천시 인제동 101-6",
    "org": "성신원",
    "org_type": "사회복지법인",
    "lon": 127.48432104013096,
    "lat": 34.94632671397889
  },
  {
    "name": "쌍봉종합사회복지관",
    "address": "전남 여수시 학동서4길 58-20",
    "lot_address": "전남 여수시 학동 65",
    "org": "밀알복지재단",
    "org_type": "사회복지법인",
    "lon": 127.65894012411903,
    "lat": 34.763156710260695
  },
  {
    "name": "속초종합사회복지관",
    "address": "강원도 속초시 먹거리길19",
    "lot_address": "강원 속초시 교동 961-1",
    "org": "대한불교조계종신흥사복지재단",
    "org_type": "사회복지법인",
    "lon": 128.57501627780584,
    "lat": 38.197012410608785
  },
  {
    "name": "남양주시북부희망케어센터",
    "address": "경기도 남양주시 진접읍 금강로1509-26 진접오남행정복지센터 복지동 1층",
    "lot_address": "경기 남양주시 진접읍 장현리 68-39",
    "org": "남양주시복지재단",
    "org_type": "재단법인",
    "lon": 127.18988075369566,
    "lat": 37.726410264275266
  },
  {
    "name": "장흥종합사회복지관",
    "address": "전남 장흥군 장흥읍 흥성로 37-24",
    "lot_address": "전남 장흥군 장흥읍 건산리 761",
    "org": "대한예수교장로회총회(합동측)복지재단",
    "org_type": "사회복지법인",
    "lon": 126.90699122581178,
    "lat": 34.67544337011109
  },
  {
    "name": "해남종합사회복지관",
    "address": "전남 해남군 해남읍 중앙1로 14-14",
    "lot_address": "전남 해남군 해남읍 해리 451-1",
    "org": "두성재단",
    "org_type": "사회복지법인(직영)",
    "lon": 126.60679209743842,
    "lat": 34.57199685494372
  },
  {
    "name": "(전북)학산종합사회복지관",
    "address": "전북 전주시 완산구 모악로 4726",
    "lot_address": "전북 전주시 완산구 평화동2가 230-27",
    "org": "우리모두사회적협동조합",
    "org_type": "협동조합",
    "lon": 127.13271326919113,
    "lat": 35.791535783087674
  },
  {
    "name": "고창군종합사회복지관",
    "address": "전북 고창군 고창읍 전봉준로 88-15",
    "lot_address": "전북 고창군 고창읍 율계리 114-4",
    "org": "대한불교조계종선운사복지재단",
    "org_type": "사회복지법인",
    "lon": 126.68316236217184,
    "lat": 35.44442946286103
  },
  {
    "name": "군산나운종합사회복지관",
    "address": "전북 군산시 문화로36",
    "lot_address": "전북 군산시 나운동 45",
    "org": "한기장복지재단",
    "org_type": "사회복지법인",
    "lon": 126.7097227273876,
    "lat": 35.968808199777925
  },
  {
    "name": "군산종합사회복지관",
    "address": "전북 군산시 칠성로 59",
    "lot_address": "전북 군산시 산북동 3611-1",
    "org": "기독교대한성결교회사회사업유지재단",
    "org_type": "사회복지법인(직영)",
    "lon": 126.67816764421957,
    "lat": 35.96006990835229
  },
  {
    "name": "길보른종합사회복지관",
    "address": "전북 김제시 금성로 93(신풍동)",
    "lot_address": "전북 김제시 신풍동 613-3",
    "org": "길보른재단",
    "org_type": "사회복지법인(직영)",
    "lon": 126.90044670300693,
    "lat": 35.799596358931296
  },
  {
    "name": "김제사회복지관",
    "address": "전북 김제시 요촌북로 110(검산주공1차@ 단지 내 관리사무소 2층)",
    "lot_address": "전북 김제시 검산동 1030-1",
    "org": "대한예수교장로회총회(합동측)유지재단",
    "org_type": "재단법인",
    "lon": 126.89628766923397,
    "lat": 35.807172987733914
  },
  {
    "name": "김제제일사회복지관",
    "address": "전북 김제시 동서 1길 9-24",
    "lot_address": "전북 김제시 교동 118-2",
    "org": "김제제일복지재단",
    "org_type": "사회복지법인(직영)",
    "lon": 126.87973209280679,
    "lat": 35.7968963459667
  },
  {
    "name": "남원사회복지관",
    "address": "전북 남원시 노송로1255-9",
    "lot_address": "전북 남원시 노암동 275",
    "org": "한기장복지재단",
    "org_type": "사회복지법인",
    "lon": 127.3774209886238,
    "lat": 35.39570853976497
  },
  {
    "name": "남양주시서부희망케어센터",
    "address": "경기도 남양주시 다산중앙로123번길 47 다산메트로 3단지 3301동",
    "lot_address": "경기 남양주시 다산동 6076",
    "org": "남양주시복지재단",
    "org_type": "재단법인",
    "lon": 127.14817929164951,
    "lat": 37.622454162598984
  },
  {
    "name": "동산사회복지관",
    "address": "전북 익산시 동천로 7길 26-1",
    "lot_address": "전북 익산시 동산동 145",
    "org": "삼동회",
    "org_type": "사회복지법인",
    "lon": 126.97054996514558,
    "lat": 35.932624456100974
  },
  {
    "name": "부송종합사회복지관",
    "address": "전북 익산시 무왕로 22길 12",
    "lot_address": "전북 익산시 부송동 1069",
    "org": "삼동회",
    "org_type": "사회복지법인",
    "lon": 126.98582909786079,
    "lat": 35.958077858370835
  },
  {
    "name": "부안종합사회복지관",
    "address": "전북 부안군 부안읍 용암로 134",
    "lot_address": "전북 부안군 부안읍 봉덕리 364",
    "org": "한기장복지재단",
    "org_type": "사회복지법인",
    "lon": 126.74637517888624,
    "lat": 35.716924527684185
  },
  {
    "name": "선너머종합사회복지관",
    "address": "전북 전주시 완산구 선너머로 54",
    "lot_address": "전북 전주시 완산구 중화산동1가 221-27",
    "org": "전주가톨릭사회복지회",
    "org_type": "사회복지법인",
    "lon": 127.13055343373071,
    "lat": 35.815389171545185
  },
  {
    "name": "원광종합사회복지관",
    "address": "전북 익산시 익산대로 415-7",
    "lot_address": "전북 익산시 신동 423-1",
    "org": "삼동회",
    "org_type": "사회복지법인(직영)",
    "lon": 126.95260952359459,
    "lat": 35.96263425653915
  },
  {
    "name": "전북종합사회복지관",
    "address": "전북 전주시 완산구 흑석로70",
    "lot_address": "전북 전주시 완산구 서서학동 986-5",
    "org": "초록우산어린이재단",
    "org_type": "사회복지법인",
    "lon": 127.14956418531276,
    "lat": 35.79812457105318
  },
  {
    "name": "전주종합사회복지관",
    "address": "전북 전주시 완산구 덕적골2길 10",
    "lot_address": "전북 전주시 완산구 평화동1가 445-1",
    "org": "삼동회",
    "org_type": "사회복지법인",
    "lon": 127.13970909619795,
    "lat": 35.79704213928153
  },
  {
    "name": "정읍사회복지관",
    "address": "전북 정읍시 수성2로 13-18",
    "lot_address": "전북 정읍시 수성동 918-1",
    "org": "전주가톨릭사회복지회",
    "org_type": "사회복지법인",
    "lon": 126.85372723859071,
    "lat": 35.58354376920563
  },
  {
    "name": "큰나루종합사회복지관",
    "address": "전북 전주시 덕진구 쪽구름2길 25",
    "lot_address": "전북 전주시 덕진구 반월동 230-7",
    "org": "삼동회",
    "org_type": "사회복지법인",
    "lon": 127.07599759935746,
    "lat": 35.87514545350867
  },
  {
    "name": "평화사회복지관",
    "address": "전북 전주시 완산구 덕적골2길 25",
    "lot_address": "전북 전주시 완산구 평화동1가 445-6",
    "org": "삼동회",
    "org_type": "사회복지법인",
    "lon": 127.1423501257191,
    "lat": 35.796872842420484
  },
  {
    "name": "녹양종합사회복지관",
    "address": "경기도 의정부시 체육로 254",
    "lot_address": "경기 의정부시 녹양동 407-4",
    "org": "사랑교육복지재단",
    "org_type": "사회복지법인",
    "lon": 127.03561369488882,
    "lat": 37.760954585215686
  },
  {
    "name": "(제주)서부종합사회복지관",
    "address": "제주특별자치도 제주시 한림읍 한림상로 207-9",
    "lot_address": "제주 제주시 한림읍 한림리 1266",
    "org": "한림소망의집",
    "org_type": "사회복지법인",
    "lon": 126.2674557375912,
    "lat": 33.41639184444129
  },
  {
    "name": "동부종합사회복지관",
    "address": "제주특별자치도 서귀포시 성산읍 일출로 14-11",
    "lot_address": "제주 서귀포시 성산읍 고성리 1108",
    "org": "제주가톨릭사회복지회",
    "org_type": "사회복지법인",
    "lon": 126.91330573113605,
    "lat": 33.44664133554612
  },
  {
    "name": "동제주종합사회복지관",
    "address": "제주특별자치도 제주시 구좌읍 평대12길 15",
    "lot_address": "제주 제주시 구좌읍 평대리 409-2",
    "org": "자현",
    "org_type": "사회복지법인",
    "lon": 126.84886605923293,
    "lat": 33.523090259605254
  },
  {
    "name": "서귀포시서부종합사회복지관",
    "address": "제주특별자치도 서귀포시 대정읍 신영로 23",
    "lot_address": "제주 서귀포시 대정읍 하모리 1191-1",
    "org": "한기장복지재단",
    "org_type": "사회복지법인",
    "lon": 126.24787288391451,
    "lat": 33.223894048506644
  },
  {
    "name": "서귀포종합사회복지관",
    "address": "제주특별자치도 서귀포시 태평로 512번길 9",
    "lot_address": "제주 서귀포시 동홍동 353-1",
    "org": "예담",
    "org_type": "사회복지법인",
    "lon": 126.57391841107983,
    "lat": 33.24982598583597
  },
  {
    "name": "서귀포삼다종합사회복지관",
    "address": "제주특별자치도 서귀포시 중동로 69-9",
    "lot_address": "제주 서귀포시 동홍동 398-6",
    "org": "제주특별자치도사회서비스원",
    "org_type": "재단법인",
    "lon": 126.56925056496324,
    "lat": 33.25069049316114
  },
  {
    "name": "아라종합사회복지관",
    "address": "제주특별자치도 제주시 인다12길 1 아라LH아파트 단지내",
    "lot_address": "제주 제주시 아라일동 6135",
    "org": "제주특별자치도사회복지협의회",
    "org_type": "사회복지법인",
    "lon": 126.546815074833,
    "lat": 33.473875777238604
  },
  {
    "name": "은성종합사회복지관",
    "address": "제주특별자치도 제주시 월두2길 63-1(아라이동)",
    "lot_address": "제주 제주시 아라이동 1163-10",
    "org": "제주은성의집",
    "org_type": "사회복지법인",
    "lon": 126.54941514632381,
    "lat": 33.485811170646414
  },
  {
    "name": "제주순복음종합사회복지관",
    "address": "제주특별자치도 제주시 천수동로 25",
    "lot_address": "제주 제주시 건입동 115-7",
    "org": "섬김의 집",
    "org_type": "사회복지법인(직영)",
    "lon": 126.54598587921427,
    "lat": 33.50836520627686
  },
  {
    "name": "제주영락종합사회복지관",
    "address": "제주특별자치도 제주시 고마로9길 32",
    "lot_address": "제주 제주시 일도이동 324-10",
    "org": "대한예수장로회제주노회유지재단",
    "org_type": "재단법인",
    "lon": 126.54242898284684,
    "lat": 33.51056634770927
  },
  {
    "name": "능실종합사회복지관",
    "address": "경기도 수원시 권선구 호매실로 166번길 10",
    "lot_address": "경기 수원시 권선구 호매실동 1415",
    "org": "힘찬동네",
    "org_type": "사단법인",
    "lon": 126.95910167494529,
    "lat": 37.258080956939
  },
  {
    "name": "제주종합사회복지관",
    "address": "제주특별자치도 제주시 도남로121, 2층",
    "lot_address": "제주 제주시 도남동 68-7",
    "org": "어린이재단",
    "org_type": "사회복지법인",
    "lon": 126.5292001121586,
    "lat": 33.48993742689382
  },
  {
    "name": "계룡시종합사회복지관",
    "address": "충남 계룡시 엄사면 문화1로 7",
    "lot_address": "충남 계룡시 엄사면 유동리 288",
    "org": "수덕",
    "org_type": "사회복지법인",
    "lon": 127.23301107600571,
    "lat": 36.27309728401623
  },
  {
    "name": "공주기독교종합사회복지관",
    "address": "충남 공주시 영명학당 1길 13",
    "lot_address": "충남 공주시 중동 321-1",
    "org": "감리회태화복지재단",
    "org_type": "사회복지법인(직영)",
    "lon": 127.12525929483095,
    "lat": 36.45107154522404
  },
  {
    "name": "공주시종합사회복지관",
    "address": "충남 공주시 의당면 의당로 257",
    "lot_address": "충남 공주시 의당면 청룡리 903",
    "org": "공주시청",
    "org_type": "지자체직영",
    "lon": 127.13622939875685,
    "lat": 36.49461970302759
  },
  {
    "name": "금강종합사회복지관",
    "address": "충남 공주시 우금티로 709-14",
    "lot_address": "충남 공주시 옥룡동 123",
    "org": "자비복지원",
    "org_type": "사회복지법인",
    "lon": 127.13415084731943,
    "lat": 36.44827082014214
  },
  {
    "name": "논산종합사회복지관",
    "address": "충남 논산시 논산대로 424",
    "lot_address": "충남 논산시 지산동 459",
    "org": "논산시",
    "org_type": "지자체직영",
    "lon": 127.10622872047657,
    "lat": 36.19751461674332
  },
  {
    "name": "당진남부사회복지관",
    "address": "충남 당진시 우강면 우강창말길 24",
    "lot_address": "충남 당진시 우강면 창리 113-1",
    "org": "삼육재단",
    "org_type": "사회복지법인",
    "lon": 126.787875307178,
    "lat": 36.813230870144665
  },
  {
    "name": "당진북부사회복지관",
    "address": "충남 당진시 정미면 정미로 727-36",
    "lot_address": "충남 당진시 정미면 천의리 248-48",
    "org": "고앤두",
    "org_type": "사회복지법인",
    "lon": 126.56817122306668,
    "lat": 36.8862697065497
  },
  {
    "name": "명천종합사회복지관",
    "address": "충남 보령시 주공로 50(명천동)",
    "lot_address": "충남 보령시 명천동 413",
    "org": "제대한구세군유지재단법인",
    "org_type": "재단법인",
    "lon": 126.60331157730766,
    "lat": 36.34261284792437
  },
  {
    "name": "보령시종합사회복지관",
    "address": "충남 보령시 천변남길 124",
    "lot_address": "충남 보령시 궁촌동 5-8",
    "org": "보령시",
    "org_type": "지자체직영",
    "lon": 126.59726313315905,
    "lat": 36.345507219549845
  },
  {
    "name": "대산종합사회복지관",
    "address": "경기도 부천시 심곡로9번길 54, 5층",
    "lot_address": "경기 부천시 소사구 심곡본동 665-13",
    "org": "기독교대한감리회 사회복지재단",
    "org_type": "사회복지법인",
    "lon": 126.77900259401954,
    "lat": 37.48246015248276
  },
  {
    "name": "서산석림사회복지관",
    "address": "충남 서산시 서해로 3456",
    "lot_address": "충남 서산시 석림동 463-3",
    "org": "구세군",
    "org_type": "재단법인",
    "lon": 126.46173748606103,
    "lat": 36.77241961497876
  },
  {
    "name": "서산시종합사회복지관",
    "address": "충남 서산시 호수공원14로 6",
    "lot_address": "충남 서산시 예천동 496-17",
    "org": "서산시",
    "org_type": "지자체직영",
    "lon": 126.44496748999983,
    "lat": 36.77266382642044
  },
  {
    "name": "세종종합사회복지관",
    "address": "세종특별자치시 조치원읍 산책1길 65",
    "lot_address": "세종 조치원읍 남리 420",
    "org": "세종중앙",
    "org_type": "사회복지법인(직영)",
    "lon": 127.30121965716506,
    "lat": 36.59609519536701
  },
  {
    "name": "송산사회복지관",
    "address": "충남 당진시 송산면 장갈길 15",
    "lot_address": "충남 당진시 송산면 삼월리 121-5",
    "org": "희망송산",
    "org_type": "사회복지법인",
    "lon": 126.67939598357916,
    "lat": 36.934623854233635
  },
  {
    "name": "송악사회복지관",
    "address": "충남 당진시 송악읍 송악로 656",
    "lot_address": "충남 당진시 송악읍 중흥리 367",
    "org": "대한불교조계종사회복지재단",
    "org_type": "사회복지법인",
    "lon": 126.74293059777347,
    "lat": 36.93760598144109
  },
  {
    "name": "쌍용종합사회복지관",
    "address": "충남 천안시 서북구 쌍용11길 57 2층 쌍용종합사회복지관",
    "lot_address": "충남 천안시 서북구 쌍용동 1284",
    "org": "대한성공회유지재단",
    "org_type": "재단법인",
    "lon": 127.12610904888561,
    "lat": 36.80253877236143
  },
  {
    "name": "아산서부종합사회복지관",
    "address": "충남 아산시 도고면 도고면로 110번길 16",
    "lot_address": "충남 아산시 도고면 기곡리 264-17",
    "org": "희망나눔재단",
    "org_type": "사회복지법인(직영)",
    "lon": 126.88004485913984,
    "lat": 36.756944875364084
  },
  {
    "name": "아산종합사회복지관",
    "address": "충남 아산시 영인면 아산온천로3번길8",
    "lot_address": "충남 아산시 영인면 아산리 125-2",
    "org": "기독교이선사회복지재단",
    "org_type": "사회복지법인(직영)",
    "lon": 126.95868906453043,
    "lat": 36.853904851702396
  },
  {
    "name": "온주종합사회복지관",
    "address": "충남 아산시 외암로 1420",
    "lot_address": "충남 아산시 읍내동 206",
    "org": "굿네이버스",
    "org_type": "사회복지법인",
    "lon": 127.01501310890914,
    "lat": 36.763025156814265
  },
  {
    "name": "음봉산동종합사회복지관",
    "address": "충남 아산시 음봉면 산동안길 16",
    "lot_address": "충남 아산시 음봉면 산동리 420-11",
    "org": "백석대학교산학협력단",
    "org_type": "학교법인",
    "lon": 127.09598811009457,
    "lat": 36.83054306318837
  },
  {
    "name": "도촌종합사회복지관",
    "address": "경기도 성남시 중원구 도촌북로 92",
    "lot_address": "경기 성남시 중원구 도촌동 647",
    "org": "여의도순복음연합",
    "org_type": "재단법인",
    "lon": 127.15905378491652,
    "lat": 37.415168409176374
  },
  {
    "name": "종촌종합복지센터종합사회복지관",
    "address": "세종특별자치시 도움 1로 116",
    "lot_address": "세종 종촌동 674",
    "org": "천성",
    "org_type": "사회복지법인",
    "lon": 127.24678417797443,
    "lat": 36.50258039916537
  },
  {
    "name": "천안시성정종합사회복지관",
    "address": "충남 천안시 서북구 쌍용대로 289-25(성정동)",
    "lot_address": "충남 천안시 서북구 성정동 787",
    "org": "나눔운동본부",
    "org_type": "사단법인",
    "lon": 127.1336978926941,
    "lat": 36.824030616951426
  },
  {
    "name": "천안시종합사회복지관",
    "address": "충남 천안시 동남구 천안대로 361",
    "lot_address": "충남 천안시 동남구 삼룡동 332-1",
    "org": "기독교대한감리회사회복지재단",
    "org_type": "사회복지법인",
    "lon": 127.16443959459644,
    "lat": 36.78092487017361
  },
  {
    "name": "청양군사회복지관",
    "address": "충남 청양군 청양읍 칠갑산로 316",
    "lot_address": "충남 청양군 청양읍 교월리 113-3",
    "org": "청양군사회복지협의회",
    "org_type": "사회복지법인",
    "lon": 126.81096086188037,
    "lat": 36.45143806024548
  },
  {
    "name": "탕정한마음종합사회복지관",
    "address": "충남 아산시 탕정면 탕정면로 40번길 12",
    "lot_address": "충남 아산시 탕정면 명암리 928-5",
    "org": "한국지역사회복리회",
    "org_type": "사회복지법인",
    "lon": 127.06126562355718,
    "lat": 36.79783527078435
  },
  {
    "name": "홍성사회복지관",
    "address": "충남 홍성군 홍성읍 조양로75번길 17",
    "lot_address": "충남 홍성군 홍성읍 오관리 701-2",
    "org": "충남기독교사회봉사회",
    "org_type": "사회복지법인(직영)",
    "lon": 126.65868286730907,
    "lat": 36.60168824866264
  },
  {
    "name": "(충북)북부종합사회복지관",
    "address": "충북 청주시 청원구 충청대로 107번길 16-1",
    "lot_address": "충북 청주시 청원구 율량동 1055",
    "org": "아름다운세상",
    "org_type": "사회복지법인",
    "lon": 127.49237729307961,
    "lat": 36.666700877261434
  },
  {
    "name": "(충북)서부종합사회복지관",
    "address": "충북 청주시 흥덕구 가로수로 1370번길 16",
    "lot_address": "충북 청주시 흥덕구 복대동 131-3",
    "org": "한국YWCA연합회후원회",
    "org_type": "사단법인",
    "lon": 127.44537196038716,
    "lat": 36.633110474748165
  },
  {
    "name": "목령종합사회복지관",
    "address": "충북 청주시 청원구 오창읍 중심상업 2로32",
    "lot_address": "충북 청주시 청원구 오창읍 양청리 813-4",
    "org": "연꽃마을",
    "org_type": "사회복지법인",
    "lon": 127.43308502118194,
    "lat": 36.71235090707295
  },
  {
    "name": "산남종합사회복지관",
    "address": "충북 청주시 서원구 구룡산로 290",
    "lot_address": "충북 청주시 서원구 수곡동 335",
    "org": "청주교구천주교회유지재단",
    "org_type": "재단법인",
    "lon": 127.4766376222648,
    "lat": 36.6172143724676
  },
  {
    "name": "만안종합사회복지관",
    "address": "경기도 안양시 만안구 박달로 547-1",
    "lot_address": "경기 안양시 만안구 안양동 693-13",
    "org": "돕는사람들",
    "org_type": "사회복지법인",
    "lon": 126.91364358851915,
    "lat": 37.4028794526473
  },
  {
    "name": "삼보사회복지관",
    "address": "충북 증평군 증평읍 창신로 85",
    "lot_address": "충북 증평군 증평읍 신동리 545",
    "org": "열림재단",
    "org_type": "사회복지법인",
    "lon": 127.58122845052537,
    "lat": 36.77865873376447
  },
  {
    "name": "생거진천종합사회복지관",
    "address": "충북 진천군 진천읍 중앙북1길 11-10",
    "lot_address": "충북 진천군 진천읍 벽암리 570-1",
    "org": "진천군",
    "org_type": "지자체(직영)",
    "lon": 127.43947088991659,
    "lat": 36.861135712289006
  },
  {
    "name": "오송종합사회복지관",
    "address": "충북 청주시 흥덕구 오송읍 오송생명1로 180",
    "lot_address": "충북 청주시 흥덕구 오송읍 연제리 677",
    "org": "대우재단",
    "org_type": "재단법인",
    "lon": 127.32292384768492,
    "lat": 36.63519913377458
  },
  {
    "name": "용암종합사회복지관",
    "address": "충북 청주시 상당구 원봉로 52-1",
    "lot_address": "충북 청주시 상당구 용암동 2108",
    "org": "월드비전",
    "org_type": "사회복지법인",
    "lon": 127.50997670027107,
    "lat": 36.61405862936413
  },
  {
    "name": "제천종합사회복지관",
    "address": "충북 제천시 용두대로23길 14",
    "lot_address": "충북 제천시 하소동 345",
    "org": "원주가톨릭사회복지회",
    "org_type": "사회복지법인",
    "lon": 128.19750617448085,
    "lat": 37.14623749669293
  },
  {
    "name": "증평종합사회복지관",
    "address": "충북 증평군 증평읍 송티로76-23",
    "lot_address": "충북 증평군 증평읍 송산리 495-1",
    "org": "열림재단",
    "org_type": "사회복지법인",
    "lon": 127.57723925952263,
    "lat": 36.80204623126487
  },
  {
    "name": "청주사회복지관",
    "address": "충북 청주시 상당구 영운천로 13-1(청주사회복지관 1층)",
    "lot_address": "충북 청주시 상당구 영운동 209-6",
    "org": "어린이재단",
    "org_type": "사회복지법인",
    "lon": 127.50119410559012,
    "lat": 36.61586681003341
  },
  {
    "name": "청주종합사회복지관",
    "address": "충북 청주시 흥덕구 1순환로 392 (신봉동)",
    "lot_address": "충북 청주시 흥덕구 신봉동 26-6",
    "org": "충북현양복지재단",
    "org_type": "사회복지법인",
    "lon": 127.47214900821048,
    "lat": 36.65614466403936
  },
  {
    "name": "충주종합사회복지관",
    "address": "충북 충주시 주공길 7",
    "lot_address": "충북 충주시 연수동 1228",
    "org": "열림재단",
    "org_type": "사회복지법인",
    "lon": 127.93545909400751,
    "lat": 36.98845471352804
  },
  {
    "name": "범안종합사회복지관",
    "address": "경기도 부천시 범안로129번길 17 2층",
    "lot_address": "경기 부천시 소사구 범박동 155-4",
    "org": "한국재활복지회",
    "org_type": "사단법인",
    "lon": 126.80981427370045,
    "lat": 37.470594151499135
  },
  {
    "name": "본오종합사회복지관",
    "address": "경기도 안산시 상록구 이호로 39",
    "lot_address": "경기 안산시 상록구 본오동 524",
    "org": "천주교수원교구사회복지회",
    "org_type": "사회복지법인",
    "lon": 126.86115097595061,
    "lat": 37.28749996398818
  },
  {
    "name": "부곡종합사회복지관",
    "address": "경기도 안산시 상록구 성호로 303",
    "lot_address": "경기 안산시 상록구 부곡동 709",
    "org": "연꽃마을",
    "org_type": "사회복지법인",
    "lon": 126.86361963840889,
    "lat": 37.3372176105599
  },
  {
    "name": "영월군종합사회복지관",
    "address": "강원도 영월군 영월읍 단종로 12",
    "lot_address": "강원 영월군 영월읍 영흥리 975-2",
    "org": "원주가톨릭사회복지회",
    "org_type": "사회복지법인",
    "lon": 128.46849226689645,
    "lat": 37.18471220090696
  },
  {
    "name": "부락종합사회복지관",
    "address": "경기도 평택시 서정로303",
    "lot_address": "경기 평택시 이충동 281",
    "org": "천주교 수원교구 사회복지회",
    "org_type": "사회복지법인",
    "lon": 127.06702575471843,
    "lat": 37.06534650830008
  },
  {
    "name": "산성종합사회복지관",
    "address": "경기도 성남시 수정구 수정남로 306번길 15-16",
    "lot_address": "경기 성남시 수정구 산성동 563",
    "org": "새날복지회",
    "org_type": "사단법인",
    "lon": 127.1537694736734,
    "lat": 37.45570652501506
  },
  {
    "name": "분당종합사회복지관",
    "address": "경기도 성남시 분당구 정자일로 33",
    "lot_address": "경기 성남시 분당구 금곡동 200",
    "org": "분당사회관",
    "org_type": "사회복지법인(직영)",
    "lon": 127.10562582279074,
    "lat": 37.352960760648685
  },
  {
    "name": "삼정종합사회복지관",
    "address": "경기도 부천시 삼작로 52",
    "lot_address": "경기 부천시 오정구 삼정동 365-2",
    "org": "한국장로교복지재단",
    "org_type": "사회복지법인",
    "lon": 126.76647230577919,
    "lat": 37.519519806456174
  },
  {
    "name": "성남위례종합사회복지관",
    "address": "경기도 성남시 수정구 위례광장로 311",
    "lot_address": "경기 성남시 수정구 창곡동 510",
    "org": "미래복지경영",
    "org_type": "사단법인",
    "lon": 127.14507938103236,
    "lat": 37.4728802967463
  },
  {
    "name": "소사본종합사회복지관",
    "address": "경기도 부천시 호현로 489번길 50",
    "lot_address": "경기 부천시 소사구 소사본동 101-141",
    "org": "서울신학대학교",
    "org_type": "학교법인(직영)",
    "lon": 126.79073922493599,
    "lat": 37.480397904840714
  },
  {
    "name": "시립광명종합사회복지관",
    "address": "경기도 광명시 오리로 1018",
    "lot_address": "경기 광명시 광명동 158-970",
    "org": "사랑나눔복지공동체",
    "org_type": "사단법인",
    "lon": 126.85041391518615,
    "lat": 37.48090920007673
  },
  {
    "name": "시흥시대야종합사회복지관",
    "address": "경기도 시흥시 호현로 55",
    "lot_address": "경기 시흥시 대야동 484-3",
    "org": "시흥시자원봉사단체협의회",
    "org_type": "사단법인",
    "lon": 126.78503322217651,
    "lat": 37.445378200954394
  },
  {
    "name": "시흥시장곡종합사회복지관",
    "address": "경기도 시흥시 동서장곡길 55",
    "lot_address": "경기 시흥시 장곡동 879",
    "org": "시흥시",
    "org_type": "지자체(직영)",
    "lon": 126.78491017599923,
    "lat": 37.38188000413113
  },
  {
    "name": "시흥시정왕종합사회복지관",
    "address": "경기도 시흥시 정왕대로 233번길 27(정왕동 1800-8)",
    "lot_address": "경기 시흥시 정왕동 1800-8",
    "org": "열린자리",
    "org_type": "사회복지법인",
    "lon": 126.7407923650058,
    "lat": 37.3472731540914
  },
  {
    "name": "원주가톨릭종합사회복지관",
    "address": "강원도 원주시 봉산로 103",
    "lot_address": "강원 원주시 봉산동 950",
    "org": "원주가톨릭사회복지회",
    "org_type": "사회복지법인(직영)",
    "lon": 127.96544772129452,
    "lat": 37.344766930217816
  },
  {
    "name": "신중동종합사회복지관",
    "address": "경기도 부천시 도약로 146 1단지관리사무소 건물 2층 복지관",
    "lot_address": "경기 부천시 원미구 중동 1041",
    "org": "룸비니",
    "org_type": "사회복지법인",
    "lon": 126.76575292363869,
    "lat": 37.50926169155526
  },
  {
    "name": "심곡동종합사회복지관",
    "address": "경기도 부천시 장말로 351번길 9, 3층 심곡동종합사회복지관",
    "lot_address": "경기 부천시 원미구 심곡동 427-6",
    "org": "인천가톨릭사회복지회",
    "org_type": "사회복지법인",
    "lon": 126.7806610976996,
    "lat": 37.49090742201572
  },
  {
    "name": "안산시선부종합사회복지관",
    "address": "경기도 안산시 단원구 화정로9",
    "lot_address": "경기 안산시 단원구 선부동 1079",
    "org": "기독교대한감리회 사회복지재단",
    "org_type": "사회복지법인",
    "lon": 126.81456532406759,
    "lat": 37.332906882134324
  },
  {
    "name": "안산시와동종합사회복지관",
    "address": "경기도 안산시 단원구 와동로 118",
    "lot_address": "경기 안산시 단원구 와동 111-4",
    "org": "굿프랜드복지재단",
    "org_type": "사회복지법인",
    "lon": 126.82725463127444,
    "lat": 37.340592570020846
  },
  {
    "name": "안산시초지종합사회복지관",
    "address": "경기도 안산시 단원구 원초로76",
    "lot_address": "경기 안산시 단원구 초지동 604-3",
    "org": "강물",
    "org_type": "사회복지법인",
    "lon": 126.80594107569604,
    "lat": 37.326229704476326
  },
  {
    "name": "안성종합사회복지관",
    "address": "경기도 안성시 산수유길 15",
    "lot_address": "경기 안성시 숭인동 296-5",
    "org": "성결원",
    "org_type": "사회복지법인(직영)",
    "lon": 127.27481732459577,
    "lat": 37.00900823770408
  },
  {
    "name": "안양시부흥종합사회복지관",
    "address": "경기도 안양시 동안구 달안로39",
    "lot_address": "경기 안양시 동안구 비산동 1102-9",
    "org": "한국장로교복지재단",
    "org_type": "사회복지법인",
    "lon": 126.94771488341406,
    "lat": 37.395331229756984
  },
  {
    "name": "안양시비산종합사회복지관",
    "address": "경기도 안양시 동안구 임곡로 74",
    "lot_address": "경기 안양시 동안구 비산동 510-5",
    "org": "위니버스",
    "org_type": "사단법인",
    "lon": 126.93407420489784,
    "lat": 37.405892673261796
  },
  {
    "name": "안양시율목종합사회복지관",
    "address": "경기도 안양시 만안구 병목안로 130번길 166",
    "lot_address": "경기 안양시 만안구 안양동 970-1",
    "org": "기독교대한감리회사회복지재",
    "org_type": "사회복지법인",
    "lon": 126.9084180719678,
    "lat": 37.39310488162637
  },
  {
    "name": "양주시옥정종합사회복지관",
    "address": "경기도 양주시 옥정동로258(천년나무8단지 입구)",
    "lot_address": "경기 양주시 옥정동 1032",
    "org": "서정대학교 산학협력단",
    "org_type": "학교법인",
    "lon": 127.10036465766964,
    "lat": 37.83036409014453
  },
  {
    "name": "원주종합사회복지관",
    "address": "강원도 원주시 육판길 1",
    "lot_address": "강원 원주시 태장동 729-3",
    "org": "원주종합사회복지재단",
    "org_type": "사회복지법인",
    "lon": 127.95679498331786,
    "lat": 37.3560979634236
  },
  {
    "name": "양평군종합사회복지관",
    "address": "경기도 양평군 용문면 용문역길67",
    "lot_address": "경기 양평군 용문면 다문리 793-8",
    "org": "대한불교조계종사회복지재단",
    "org_type": "사회복지법인",
    "lon": 127.58934667123368,
    "lat": 37.48063507360092
  },
  {
    "name": "연무사회복지관",
    "address": "경기도 수원특례시 장안구 창룡대로 151번길 8",
    "lot_address": "경기 수원시 장안구 연무동 260-34",
    "org": "경기사회봉사회",
    "org_type": "사회복지법인",
    "lon": 127.02662652246731,
    "lat": 37.291775081887565
  },
  {
    "name": "영통종합사회복지관",
    "address": "경기도 수원시 영통구 반달로 45",
    "lot_address": "경기 수원시 영통구 영통동 1012-5",
    "org": "대한불교조계종사회복지재단",
    "org_type": "사회복지법인",
    "lon": 127.07736803945957,
    "lat": 37.25058924525919
  },
  {
    "name": "오산남부종합사회복지관",
    "address": "경기도 오산시 오산로 132번길 28-5",
    "lot_address": "경기 오산시 원동 404-10",
    "org": "오산예일",
    "org_type": "사단법인",
    "lon": 127.07232175629429,
    "lat": 37.138652935743195
  },
  {
    "name": "오산세교종합사회복지관",
    "address": "경기도 오산시 수청로192, 4층",
    "lot_address": "경기 오산시 금암동 512",
    "org": "세교복지재단",
    "org_type": "사회복지법인",
    "lon": 127.04499808018107,
    "lat": 37.17751200293138
  },
  {
    "name": "오산종합사회복지관",
    "address": "경기도 오산시 현충로 104",
    "lot_address": "경기 오산시 오산동 25",
    "org": "한신대학교 산학협력단",
    "org_type": "학교법인",
    "lon": 127.07789383849797,
    "lat": 37.15942495465244
  },
  {
    "name": "오정종합사회복지관",
    "address": "경기도 부천시 성오로 149번길 18",
    "lot_address": "경기 부천시 오정구 오정동 139-1",
    "org": "룸비니",
    "org_type": "사회복지법인",
    "lon": 126.79782858769553,
    "lat": 37.52593559408933
  },
  {
    "name": "용인종합사회복지관",
    "address": "경기도 용인시 처인구 이동읍 이원로 69-8",
    "lot_address": "경기 용인시 처인구 이동읍 천리 97-1",
    "org": "혜린",
    "org_type": "사회복지법인(직영)",
    "lon": 127.21496206941471,
    "lat": 37.189507532356195
  },
  {
    "name": "우만종합사회복지관",
    "address": "경기도 수원시 팔달구 창룡대로210번길 13",
    "lot_address": "경기 수원시 팔달구 우만동 301",
    "org": "천주교수원교구사회복지회",
    "org_type": "사회복지법인",
    "lon": 127.03491362413187,
    "lat": 37.29214282330303
  },
  {
    "name": "월드비전 성남종합사회복지관",
    "address": "경기도 성남시 중원구 금빛로89",
    "lot_address": "경기 성남시 중원구 금광동 2957",
    "org": "월드비전",
    "org_type": "사회복지법인(직영)",
    "lon": 127.16604445682,
    "lat": 37.44978040434648
  },
  {
    "name": "월드비전동해종합사회복지관",
    "address": "강원도 동해시 전천로 273-10",
    "lot_address": "강원 동해시 북평동 83",
    "org": "월드비전",
    "org_type": "사회복지법인",
    "lon": 129.12156019371724,
    "lat": 37.48246789853963
  },
  {
    "name": "은행종합사회복지관",
    "address": "경기도 성남시 중원구 산성대로 518번길 30",
    "lot_address": "경기 성남시 중원구 은행동 2503",
    "org": "굿패밀리복지재단",
    "org_type": "사회복지법인",
    "lon": 127.16641218629852,
    "lat": 37.45572642405095
  },
  {
    "name": "작은자리종합사회복지관",
    "address": "경기도 시흥시 시흥대로 1087",
    "lot_address": "경기 시흥시 신천동 882-3",
    "org": "복음자리",
    "org_type": "사회복지법인(직영)",
    "lon": 126.79279110696064,
    "lat": 37.43294631881295
  },
  {
    "name": "장암종합사회복지관",
    "address": "경기도 의정부시 회룡로192번길 11(장암동)",
    "lot_address": "경기 의정부시 장암동 5",
    "org": "한국기독교청년회전국연맹유지재단",
    "org_type": "재단법인",
    "lon": 127.0587526559861,
    "lat": 37.72443824020719
  },
  {
    "name": "중탑종합사회복지관",
    "address": "경기도 성남시 판교로 607",
    "lot_address": "경기 성남시 분당구 야탑동 165",
    "org": "할렐루야복지재단",
    "org_type": "사회복지법인",
    "lon": 127.14106147096932,
    "lat": 37.40780426261735
  },
  {
    "name": "철산종합사회복지관",
    "address": "경기도 광명시 연서일로 4-3",
    "lot_address": "경기 광명시 철산동 158",
    "org": "대한불교조계종사회복지재단",
    "org_type": "사회복지법인",
    "lon": 126.86553986524228,
    "lat": 37.48307078440756
  },
  {
    "name": "청솔종합사회복지관",
    "address": "경기도 성남시 분당구 미금로 246",
    "lot_address": "경기 성남시 분당구 금곡동 126",
    "org": "대한불교천태종복지재단",
    "org_type": "사회복지법인",
    "lon": 127.11115061704564,
    "lat": 37.353788249720026
  },
  {
    "name": "춘의종합사회복지관",
    "address": "경기도 부천시 원미로 202",
    "lot_address": "경기 부천시 원미구 춘의동 237",
    "org": "행복을나누는사람들",
    "org_type": "사단법인",
    "lon": 126.79448927746711,
    "lat": 37.50034060929373
  },
  {
    "name": "파주시문산종합사회복지관",
    "address": "경기도 파주시 문산읍 통일로 1680 문산행복센터 內",
    "lot_address": "경기 파주시 문산읍 선유리 1402",
    "org": "해피월드복지재단",
    "org_type": "사회복지법인",
    "lon": 126.79030072745104,
    "lat": 37.85672214947405
  },
  {
    "name": "파주시운정종합사회복지관",
    "address": "경기도 파주시 운정중앙로200 물향기마을 1단지 내",
    "lot_address": "경기 파주시 동패동 2173-495",
    "org": "서영대학교 산학협력단",
    "org_type": "학교법인",
    "lon": 126.72671138828528,
    "lat": 37.72946439681679
  },
  {
    "name": "판교종합사회복지관",
    "address": "경기도 성남시 분당구 운중로 254",
    "lot_address": "경기 성남시 분당구 판교동 628",
    "org": "함께하는한숲",
    "org_type": "사단법인",
    "lon": 127.09106383407149,
    "lat": 37.389020194415515
  },
  {
    "name": "월드비전춘천종합사회복지관",
    "address": "강원도 춘천시 근화길 95",
    "lot_address": "강원 춘천시 효자동 373-90",
    "org": "월드비전",
    "org_type": "사회복지법인(직영)",
    "lon": 127.7228647149204,
    "lat": 37.870171135320405
  },
  {
    "name": "포천시종합사회복지관",
    "address": "경기도 포천시 군내면 청성로 5 포천종합사회복지관",
    "lot_address": "경기 포천시 군내면 하성북리 520-3",
    "org": "대한사회복지회",
    "org_type": "사회복지법인",
    "lon": 127.21203314045182,
    "lat": 37.9049269958838
  },
  {
    "name": "하남시감일종합사회복지관",
    "address": "경기도 하남시 감일순환로 95-3",
    "lot_address": "경기 하남시 감일동 534",
    "org": "휴먼복지회",
    "org_type": "사회복지법인",
    "lon": 127.1636243862948,
    "lat": 37.511906761436734
  },
  {
    "name": "하남시미사강변종합사회복지관",
    "address": "경기도 하남시 아리수로565, 1301동 1층",
    "lot_address": "경기 하남시 망월동 949",
    "org": "하남시민생안정후원회",
    "org_type": "사단법인",
    "lon": 127.18867588408212,
    "lat": 37.56870985558381
  },
  {
    "name": "하남시종합사회복지관",
    "address": "경기도 하남시 덕풍천서로 9",
    "lot_address": "경기 하남시 신장동 521-5",
    "org": "홀트아동복지회",
    "org_type": "사회복지법인",
    "lon": 127.21578757504213,
    "lat": 37.54173102654864
  },
  {
    "name": "하안종합사회복지관",
    "address": "경기도 광명시 하안로238(하안3동, 200번지, 신관3층)",
    "lot_address": "경기 광명시 하안동 200",
    "org": "나눔과섬김",
    "org_type": "사단법인",
    "lon": 126.88388696197353,
    "lat": 37.45923200034973
  },
  {
    "name": "한솔종합사회복지관",
    "address": "경기도 성남시 분당구 내정로 94",
    "lot_address": "경기 성남시 분당구 정자동 101",
    "org": "연꽃마을",
    "org_type": "사회복지법인",
    "lon": 127.11586643689188,
    "lat": 37.36870689429422
  },
  {
    "name": "함현상생종합사회복지관",
    "address": "경기도 시흥시 함송로29번길 67",
    "lot_address": "경기 시흥시 정왕동 1878-11",
    "org": "상생복지회",
    "org_type": "사회복지법인(직영)",
    "lon": 126.73751658120415,
    "lat": 37.364248667166976
  },
  {
    "name": "합정종합사회복지관",
    "address": "경기도 평택시 평택로 22, 관리동",
    "lot_address": "경기 평택시 합정동 829",
    "org": "구세군복지재단",
    "org_type": "사회복지법인",
    "lon": 127.09066838863919,
    "lat": 36.98985142454915
  },
  {
    "name": "화성시나래울종합사회복지관",
    "address": "경기도 화성시 여울로2길 33",
    "lot_address": "경기 화성시 능동 1130",
    "org": "일송학원",
    "org_type": "학교법인",
    "lon": 127.05157545700345,
    "lat": 37.205131175942924
  },
  {
    "name": "화성시남부종합사회복지관",
    "address": "경기도 화성시 향남읍 행정서로 3길 50",
    "lot_address": "경기 화성시 향남읍 행정리 437-3",
    "org": "나눔과실천",
    "org_type": "사단법인",
    "lon": 126.91959684428772,
    "lat": 37.130418367686076
  }
]